city,country,temperature,description,latitude,longitude,Hotel Name
bredasdorp,ZA,60.8,clear sky,-34.53,20.04,Bredasdorp Country Manor
bhitarwar,IN,84.2,scattered clouds,25.8,78.12,MPEB bhitarwar
baculin,PH,79.43,overcast clouds,7.45,126.58,Shovy's Cove
esil,KZ,50.14,clear sky,51.96,66.4,Egorkino Hotel
saint-philippe,RE,69.8,mist,-21.36,55.77,"Chambres d'hôte ""La Trinité"""
arraial do cabo,BR,80.6,few clouds,-22.97,-42.03,Pousada Porto Praia
klaksvik,FO,51.8,drizzle,62.23,-6.59,Airbnb rooms
shubarshi,KZ,64.13,clear sky,48.59,57.19,
makakilo city,US,78.8,overcast clouds,21.35,-158.09,Marriott's Ko Olina Beach Club
dubbo,AU,53.6,clear sky,-32.25,148.62,Comfort Inn Blue Lagoon
hobart,AU,60.01,overcast clouds,-42.88,147.33,St Ives Hobart Accommodation Tasmania
puerto ayora,EC,77.0,scattered clouds,-0.74,-90.35,Finch Bay Galapagos Hotel
college,US,53.6,broken clouds,64.86,-147.8,Pike's Waterfront Lodge
new norfolk,AU,60.01,overcast clouds,-42.78,147.06,The Shingles Riverside Cottages
cidreira,BR,57.69,moderate rain,-30.18,-50.21,Hotel Castelo
hithadhoo,MV,82.9,overcast clouds,-0.6,73.08,Scoop Guest House
pout,SN,78.8,broken clouds,14.77,-17.06,chez sada niang
beruwala,LK,80.11,overcast clouds,6.48,79.98,The Palms Hotel
pringsewu,ID,72.95,clear sky,-5.36,104.97,Urban Style by Front One
pisco,PE,64.99,scattered clouds,-13.7,-76.22,Hostal San Isidro Oficial
cabo san lucas,MX,84.2,scattered clouds,22.89,-109.91,Hotel Tesoro Los Cabos
butaritari,KI,82.89,scattered clouds,3.07,172.79,Isles Sunset Lodge
naze,JP,75.2,scattered clouds,28.37,129.48,奄美ポートタワーホテル
hithadhoo,MV,82.9,overcast clouds,-0.6,73.08,Scoop Guest House
koscierzyna,PL,55.4,clear sky,54.12,17.98,Bazuny Hotel & SPA Kaszuby
jamestown,US,66.99,few clouds,42.1,-79.24,Hampton Inn & Suites Jamestown
avarua,CK,73.4,few clouds,-21.21,-159.78,Paradise Inn
hermanus,ZA,59.63,clear sky,-34.42,19.23,Misty Waves Boutique Hotel
rikitea,PF,73.18,clear sky,-23.12,-134.97,Pension Maro'i
rikitea,PF,73.18,clear sky,-23.12,-134.97,Pension Maro'i
mackay,AU,66.2,broken clouds,-21.15,149.2,International Lodge Motel
shimoda,JP,73.0,light rain,34.67,138.95,Shimoda Tokyu Hotel
laguna,US,93.99,haze,38.42,-121.42,Holiday Inn Express & Suites Elk Grove Central - Hwy 99
san patricio,MX,86.0,broken clouds,19.22,-104.7,Hotel Cabo Blanco
goderich,CA,73.0,broken clouds,43.75,-81.72,Harmony Inn
edd,ER,93.56,clear sky,13.93,41.69,
cape town,ZA,63.0,clear sky,-33.93,18.42,Southern Sun Waterfront Cape Town
carnarvon,AU,64.4,broken clouds,-24.87,113.63,Hospitality Carnarvon
norman wells,CA,51.8,overcast clouds,65.28,-126.83,Heritage Hotel
jurm,AF,58.19,clear sky,36.86,70.83,
cabo san lucas,MX,84.2,scattered clouds,22.89,-109.91,Hotel Tesoro Los Cabos
bukama,CD,79.9,clear sky,-9.2,25.85,
vieux-habitants,GP,87.8,broken clouds,16.06,-61.77,Gîtes Dardanelle
boralday,KZ,51.8,few clouds,43.36,76.86,Burunday Oteli
atuona,PF,78.87,few clouds,-9.8,-139.03,Villa Enata
basco,PH,83.61,broken clouds,20.45,121.97,Nathaniel's Lodge
lebu,CL,53.6,broken clouds,-37.62,-73.65,Hostal Las Lilas
kaifeng,CN,69.8,broken clouds,34.79,114.35,Pullman Kaifeng Jianye
torbay,CA,66.99,few clouds,47.67,-52.73,Gallows Cove
hofn,IS,55.4,few clouds,64.25,-15.21,Hótel Höfn
fortuna,US,86.0,clear sky,40.6,-124.16,Super 8 by Wyndham Fortuna
bella union,UY,61.56,overcast clouds,-30.28,-57.6,Hotel Oriente
necochea,AR,61.0,clear sky,-38.55,-58.74,dyd -mar Hotel
constitucion,CL,56.64,broken clouds,-35.33,-72.42,Hotel Boutique Las Azucenas
saint-philippe,RE,69.8,mist,-21.36,55.77,"Chambres d'hôte ""La Trinité"""
rikitea,PF,73.18,clear sky,-23.12,-134.97,Pension Maro'i
andenes,NO,53.6,overcast clouds,69.31,16.12,Hotell Marena
ca mau,VN,79.99,overcast clouds,9.18,105.15,Khách Sạn Mường Thanh Luxury Cà Mau
tulsipur,NP,88.0,broken clouds,28.13,82.3,Ekanta Hotel Pvt. Ltd
atuona,PF,78.87,few clouds,-9.8,-139.03,Villa Enata
new norfolk,AU,60.01,overcast clouds,-42.78,147.06,The Shingles Riverside Cottages
alice springs,AU,62.6,clear sky,-23.7,133.88,Desert Palms Alice Springs
hithadhoo,MV,82.9,overcast clouds,-0.6,73.08,Scoop Guest House
alofi,NU,69.8,broken clouds,-19.06,-169.92,Taloa Heights
puerto ayora,EC,77.0,scattered clouds,-0.74,-90.35,Finch Bay Galapagos Hotel
port lincoln,AU,58.73,overcast clouds,-34.73,135.87,Port Lincoln Hotel
lompoc,US,78.8,clear sky,34.64,-120.46,Holiday Inn Express Lompoc
margate,GB,64.99,overcast clouds,51.38,1.39,Premier Inn Margate hotel
mayo,US,82.0,clear sky,38.89,-76.51,Resorts Resource Group International
airai,TL,56.57,broken clouds,-8.93,125.41,Juvinal Martin
hermanus,ZA,59.63,clear sky,-34.42,19.23,Misty Waves Boutique Hotel
sao filipe,CV,79.5,light rain,14.9,-24.5,Tortuga B&B
dubai,AE,93.2,clear sky,25.26,55.3,"Radisson Blu Hotel, Dubai Deira Creek"
timberlake,US,84.99,clear sky,37.32,-79.26,Timberlake Motel
havre-saint-pierre,CA,66.2,clear sky,50.23,-63.6,Auberge Niapiskau
faanui,PF,77.79,clear sky,-16.48,-151.75,Bora-Bora Pearl Beach Resort & Spa
westport,US,80.6,clear sky,41.14,-73.36,The Westport Inn
lianzhou,CN,75.15,overcast clouds,24.78,112.38,Qingcheng Tourism Industry
cleveland,US,66.2,scattered clouds,41.5,-81.7,Cleveland Marriott Downtown at Key Tower
rikitea,PF,73.18,clear sky,-23.12,-134.97,Pension Maro'i
albany,US,78.01,scattered clouds,42.6,-73.97,
arlit,NE,86.56,light rain,18.74,7.39,Hôtel Telwa Bungalow
albany,US,78.01,scattered clouds,42.6,-73.97,
pisco,PE,64.99,scattered clouds,-13.7,-76.22,Hostal San Isidro Oficial
kahului,US,82.4,few clouds,20.89,-156.47,Maui Seaside Hotel
namatanai,PG,79.18,clear sky,-3.67,152.43,Namatanai Hotel
fortuna,US,86.0,clear sky,40.6,-124.16,Super 8 by Wyndham Fortuna
castro,BR,80.65,few clouds,-24.79,-50.01,CHACARA BAILLY
lagoa,PT,70.07,scattered clouds,39.05,-27.98,Casa Das Faias
florianopolis,BR,69.01,moderate rain,-27.61,-48.5,Hotel Boutique Quinta das Videiras
vila velha,BR,81.0,clear sky,-20.33,-40.29,Hotel Vitória Palace
lebu,CL,53.6,broken clouds,-37.62,-73.65,Hostal Las Lilas
bredasdorp,ZA,60.8,clear sky,-34.53,20.04,Bredasdorp Country Manor
port alfred,ZA,62.04,clear sky,-33.59,26.89,The Halyards Hotel
rikitea,PF,73.18,clear sky,-23.12,-134.97,Pension Maro'i
kapaa,US,82.4,scattered clouds,22.08,-159.32,Sheraton Kauai Resort at Coconut Beach
los llanos de aridane,ES,77.0,few clouds,28.66,-17.92,Valle Aridane
leisure city,US,84.2,overcast clouds,25.5,-80.43,Hampton Inn & Suites Miami-South/Homestead
rikitea,PF,73.18,clear sky,-23.12,-134.97,Pension Maro'i
oistins,BB,87.8,scattered clouds,13.07,-59.53,Butterfly Beach Hotel
vila,PT,78.01,scattered clouds,42.03,-8.16,Hotel Castrum Villae
andros,GR,81.0,clear sky,37.83,24.93,Micra Anglia Hotel - Andros
mao,ES,66.2,few clouds,39.89,4.27,ARTIEM Capri
vaini,TO,68.0,broken clouds,-21.2,-175.2,Keleti Beach Resort
bredasdorp,ZA,60.8,clear sky,-34.53,20.04,Bredasdorp Country Manor
cayenne,GF,89.6,light rain,4.93,-52.33,Hôtel Le Dronmi
atuona,PF,78.87,few clouds,-9.8,-139.03,Villa Enata
honiara,SB,73.4,few clouds,-9.43,159.95,Heritage Park Hotel
hilo,US,80.6,few clouds,19.73,-155.09,Hilo Hawaiian Hotel
faanui,PF,77.79,clear sky,-16.48,-151.75,Bora-Bora Pearl Beach Resort & Spa
bartica,GY,77.0,thunderstorm,6.4,-58.62,La Vista Hotel and Apartment
hithadhoo,MV,82.9,overcast clouds,-0.6,73.08,Scoop Guest House
ornskoldsvik,SE,53.6,scattered clouds,63.29,18.72,First Hotel Statt
faanui,PF,77.79,clear sky,-16.48,-151.75,Bora-Bora Pearl Beach Resort & Spa
bethel,US,78.01,clear sky,41.37,-73.41,Courtyard by Marriott Danbury
nikolskoye,RU,55.4,broken clouds,59.7,30.79,Tourist House - Sablino
avarua,CK,73.4,few clouds,-21.21,-159.78,Paradise Inn
san cristobal,VE,89.6,scattered clouds,7.77,-72.22,Pirineos
mayumba,GA,75.09,broken clouds,-3.43,10.66,LIKWALE LODGE
katsuura,JP,82.99,scattered clouds,35.13,140.3,Katsuura Hotel Mikazuki
jamestown,US,66.99,few clouds,42.1,-79.24,Hampton Inn & Suites Jamestown
avarua,CK,73.4,few clouds,-21.21,-159.78,Paradise Inn
whitehorse,CA,55.4,broken clouds,60.72,-135.05,The Sternwheeler Hotel & Conference Centre
nurota,UZ,66.2,clear sky,40.56,65.69,Guest House Ruslan Nurata & Tours
jamestown,US,66.99,few clouds,42.1,-79.24,Hampton Inn & Suites Jamestown
laramie,US,78.8,clear sky,41.31,-105.59,Ramada by Wyndham Laramie
butaritari,KI,82.89,scattered clouds,3.07,172.79,Isles Sunset Lodge
namibe,AO,68.25,scattered clouds,-15.2,12.15,Hotel Chik Chik Namibe
new norfolk,AU,60.01,overcast clouds,-42.78,147.06,The Shingles Riverside Cottages
rikitea,PF,73.18,clear sky,-23.12,-134.97,Pension Maro'i
atuona,PF,78.87,few clouds,-9.8,-139.03,Villa Enata
vaini,TO,68.0,broken clouds,-21.2,-175.2,Keleti Beach Resort
drummondville,CA,75.0,broken clouds,45.88,-72.48,Hôtel et Suites Le Dauphin Drummondville
vaini,TO,68.0,broken clouds,-21.2,-175.2,Keleti Beach Resort
beinamar,TD,71.51,scattered clouds,8.67,15.38,
yellowknife,CA,51.01,broken clouds,62.46,-114.35,The Explorer Hotel
yellowknife,CA,51.01,broken clouds,62.46,-114.35,The Explorer Hotel
arraial do cabo,BR,80.6,few clouds,-22.97,-42.03,Pousada Porto Praia
obo,CF,68.63,overcast clouds,5.4,26.49,
bergama,TR,86.0,clear sky,39.12,27.18,Anil Hotel
corning,US,82.4,clear sky,42.14,-77.05,Fairfield Inn by Marriott Corning Riverside
vega de alatorre,MX,84.38,overcast clouds,20.03,-96.63,Hotel Deluxe
tiznit,MA,90.55,clear sky,29.58,-9.5,
ilinskiy,RU,66.0,light rain,55.62,38.12,Around the world
hermanus,ZA,59.63,clear sky,-34.42,19.23,Misty Waves Boutique Hotel
puerto ayora,EC,77.0,scattered clouds,-0.74,-90.35,Finch Bay Galapagos Hotel
port alfred,ZA,62.04,clear sky,-33.59,26.89,The Halyards Hotel
cockburn town,TC,86.0,scattered clouds,21.46,-71.14,Osprey Beach Hotel
tiznit,MA,90.55,clear sky,29.58,-9.5,
ostrovnoy,RU,52.41,light rain,68.05,39.51,
hasaki,JP,80.6,few clouds,35.73,140.83,Inubosaki Kanko Hotel
hermanus,ZA,59.63,clear sky,-34.42,19.23,Misty Waves Boutique Hotel
gurgaon,IN,88.0,mist,28.47,77.03,"The Westin Gurgaon, New Delhi"
cockburn town,TC,86.0,scattered clouds,21.46,-71.14,Osprey Beach Hotel
cidreira,BR,57.69,moderate rain,-30.18,-50.21,Hotel Castelo
ribeira grande,PT,71.6,scattered clouds,38.52,-28.7,Quinta da Meia Eira
saldanha,ZA,62.6,clear sky,-33.01,17.94,Blue Bay Lodge
itinga,BR,93.79,scattered clouds,-16.61,-41.77,Pousada Barbosa
mar del plata,AR,55.4,clear sky,-38.0,-57.56,Gran Hotel Mar del Plata habitaciones
port moresby,PG,78.8,overcast clouds,-9.44,147.18,Lamana Hotel
airai,TL,56.57,broken clouds,-8.93,125.41,Juvinal Martin
nikolskoye,RU,55.4,broken clouds,59.7,30.79,Tourist House - Sablino
rikitea,PF,73.18,clear sky,-23.12,-134.97,Pension Maro'i
kavieng,PG,82.58,clear sky,-2.57,150.8,Nusa Island Retreat
kavieng,PG,82.58,clear sky,-2.57,150.8,Nusa Island Retreat
lebu,CL,53.6,broken clouds,-37.62,-73.65,Hostal Las Lilas
ericeira,PT,87.8,clear sky,38.96,-9.42,HOTEL PEDRO O PESCADOR
mae ramat,TH,75.16,overcast clouds,16.98,98.52,ก้านพลู ไอศครีมกะทิสด
erzin,TR,84.0,clear sky,36.96,36.2,Artemis Otel
namibe,AO,68.25,scattered clouds,-15.2,12.15,Hotel Chik Chik Namibe
beruwala,LK,80.11,overcast clouds,6.48,79.98,The Palms Hotel
georgetown,MY,80.6,few clouds,5.41,100.34,Cititel Penang
lebu,CL,53.6,broken clouds,-37.62,-73.65,Hostal Las Lilas
ogulin,HR,73.4,overcast clouds,45.27,15.23,Hotel Frankopan
kapaa,US,82.4,scattered clouds,22.08,-159.32,Sheraton Kauai Resort at Coconut Beach
carnwath,GB,61.0,overcast clouds,55.7,-3.63,The Robertson Arms Hotel
jamestown,US,66.99,few clouds,42.1,-79.24,Hampton Inn & Suites Jamestown
kapaa,US,82.4,scattered clouds,22.08,-159.32,Sheraton Kauai Resort at Coconut Beach
arauco,CL,55.4,broken clouds,-37.25,-73.32,Con vista al mar
albany,US,78.01,scattered clouds,42.6,-73.97,
port alfred,ZA,62.04,clear sky,-33.59,26.89,The Halyards Hotel
bethel,US,78.01,clear sky,41.37,-73.41,Courtyard by Marriott Danbury
port alfred,ZA,62.04,clear sky,-33.59,26.89,The Halyards Hotel
georgetown,MY,80.6,few clouds,5.41,100.34,Cititel Penang
karlstad,SE,57.99,broken clouds,59.38,13.5,Scandic Karlstad City
hermanus,ZA,59.63,clear sky,-34.42,19.23,Misty Waves Boutique Hotel
atuona,PF,78.87,few clouds,-9.8,-139.03,Villa Enata
vaini,TO,68.0,broken clouds,-21.2,-175.2,Keleti Beach Resort
namibe,AO,68.25,scattered clouds,-15.2,12.15,Hotel Chik Chik Namibe
camacha,PT,75.2,few clouds,33.08,-16.33,Hotel Porto Santo & Spa
souillac,MU,71.6,shower rain,-20.52,57.52,Bils' Villa
kasongo-lunda,CD,82.58,scattered clouds,-6.47,16.82,
luis correia,BR,85.73,few clouds,-2.88,-41.67,Hotel Amarração
kapaa,US,82.4,scattered clouds,22.08,-159.32,Sheraton Kauai Resort at Coconut Beach
port alfred,ZA,62.04,clear sky,-33.59,26.89,The Halyards Hotel
bredasdorp,ZA,60.8,clear sky,-34.53,20.04,Bredasdorp Country Manor
cape town,ZA,63.0,clear sky,-33.93,18.42,Southern Sun Waterfront Cape Town
torbay,CA,66.99,few clouds,47.67,-52.73,Gallows Cove
hermanus,ZA,59.63,clear sky,-34.42,19.23,Misty Waves Boutique Hotel
cape town,ZA,63.0,clear sky,-33.93,18.42,Southern Sun Waterfront Cape Town
saint-pierre,RE,69.8,mist,-21.34,55.48,Lindsey Hôtel
constitucion,CL,56.64,broken clouds,-35.33,-72.42,Hotel Boutique Las Azucenas
padre bernardo,BR,96.22,scattered clouds,-15.35,-48.5,
georgetown,MY,80.6,few clouds,5.41,100.34,Cititel Penang
saint-philippe,RE,69.8,mist,-21.36,55.77,"Chambres d'hôte ""La Trinité"""
kapaa,US,82.4,scattered clouds,22.08,-159.32,Sheraton Kauai Resort at Coconut Beach
cape town,ZA,63.0,clear sky,-33.93,18.42,Southern Sun Waterfront Cape Town
sambava,MG,71.58,clear sky,-14.27,50.17,Melrose
chuy,UY,57.87,scattered clouds,-33.7,-53.46,Nuevo Hotel Plaza
kahului,US,82.4,few clouds,20.89,-156.47,Maui Seaside Hotel
avera,US,86.0,scattered clouds,33.19,-82.53,
albany,US,78.01,scattered clouds,42.6,-73.97,
jardim,BR,88.25,overcast clouds,-21.48,-56.14,Hotel Estância
jalu,LY,84.31,clear sky,29.03,21.55,Jalu Hotel
port elizabeth,ZA,59.0,few clouds,-33.92,25.57,39 On Nile Guest House
vaini,TO,68.0,broken clouds,-21.2,-175.2,Keleti Beach Resort
kapaa,US,82.4,scattered clouds,22.08,-159.32,Sheraton Kauai Resort at Coconut Beach
saint george,US,93.0,clear sky,37.1,-113.58,Best Western Plus Abbey Inn
singaraja,ID,77.94,few clouds,-8.11,115.09,Puri Bagus Lovina Resort
cape town,ZA,63.0,clear sky,-33.93,18.42,Southern Sun Waterfront Cape Town
petrozavodsk,RU,51.8,broken clouds,61.78,34.35,"Первый рыбный ресторан ""Фрегат"""
port elizabeth,ZA,59.0,few clouds,-33.92,25.57,39 On Nile Guest House
airai,TL,56.57,broken clouds,-8.93,125.41,Juvinal Martin
los llanos de aridane,ES,77.0,few clouds,28.66,-17.92,Valle Aridane
albany,US,78.01,scattered clouds,42.6,-73.97,
hobart,AU,60.01,overcast clouds,-42.88,147.33,St Ives Hobart Accommodation Tasmania
north bend,US,61.0,few clouds,43.41,-124.22,Red Lion Hotel Coos Bay
flinders,AU,57.99,clear sky,-34.58,150.86,Shellharbour Resort & Conference Centre
kapaa,US,82.4,scattered clouds,22.08,-159.32,Sheraton Kauai Resort at Coconut Beach
hobart,AU,60.01,overcast clouds,-42.88,147.33,St Ives Hobart Accommodation Tasmania
lichinga,MZ,64.0,smoke,-13.31,35.24,Residencial Bendiak
kodiak,US,53.6,clear sky,57.79,-152.41,Best Western Kodiak Inn and Convention Center
severo-kurilsk,RU,52.77,scattered clouds,50.68,156.12,Kak Doma
butaritari,KI,82.89,scattered clouds,3.07,172.79,Isles Sunset Lodge
faanui,PF,77.79,clear sky,-16.48,-151.75,Bora-Bora Pearl Beach Resort & Spa
cape town,ZA,63.0,clear sky,-33.93,18.42,Southern Sun Waterfront Cape Town
sistranda,NO,51.8,light rain,63.73,8.83,Hotell Frøya
matara,LK,79.03,overcast clouds,5.95,80.54,Amaloh Boutique Resort
banda aceh,ID,80.47,overcast clouds,5.56,95.32,OYO 884 Rumoh PMI Hotel
fez,MA,93.2,few clouds,34.04,-5.0,Hotel Mounia Fès
east london,ZA,59.0,few clouds,-33.02,27.91,Tu Casa
pacific grove,US,96.01,haze,36.62,-121.92,Lovers Point Inn
constitucion,CL,56.64,broken clouds,-35.33,-72.42,Hotel Boutique Las Azucenas
payakumbuh,ID,69.85,broken clouds,-0.22,100.63,OYO 3114 Homestay Dalimo
atuona,PF,78.87,few clouds,-9.8,-139.03,Villa Enata
hami,CN,74.73,broken clouds,42.8,93.45,Laoyutang Resort
albany,US,78.01,scattered clouds,42.6,-73.97,
saint-pierre,RE,69.8,mist,-21.34,55.48,Lindsey Hôtel
mahebourg,MU,71.6,shower rain,-20.41,57.7,Shandrani Beachcomber Resort & Spa
jamestown,US,66.99,few clouds,42.1,-79.24,Hampton Inn & Suites Jamestown
cape town,ZA,63.0,clear sky,-33.93,18.42,Southern Sun Waterfront Cape Town
rikitea,PF,73.18,clear sky,-23.12,-134.97,Pension Maro'i
tomohon,ID,75.2,scattered clouds,1.33,124.84,Gardenia Country Inn
tomatlan,MX,89.2,overcast clouds,19.93,-105.25,Norma franco
monte alegre,BR,95.56,scattered clouds,-2.01,-54.07,Hotel Shekinah
kahului,US,82.4,few clouds,20.89,-156.47,Maui Seaside Hotel
atuona,PF,78.87,few clouds,-9.8,-139.03,Villa Enata
nueva concepcion,GT,89.6,scattered clouds,14.2,-91.3,Hotel Villa Las Flores
rikitea,PF,73.18,clear sky,-23.12,-134.97,Pension Maro'i
kathu,TH,87.01,few clouds,7.92,98.33,Novotel Phuket Resort
cape town,ZA,63.0,clear sky,-33.93,18.42,Southern Sun Waterfront Cape Town
xushan,CN,86.0,clear sky,30.18,121.25,Hangzhou Bay Hotel
kudahuvadhoo,MV,83.01,overcast clouds,2.67,72.89,Kudahuvadhoo Retreat
seminole,US,93.99,broken clouds,28.71,-81.21,WHITNEY-WOLCOTT HOUSE ON LAKE CHARM
vaini,TO,68.0,broken clouds,-21.2,-175.2,Keleti Beach Resort
atuona,PF,78.87,few clouds,-9.8,-139.03,Villa Enata
dakar,SN,82.4,broken clouds,14.69,-17.44,Novotel Dakar
yamada,JP,76.01,few clouds,39.47,141.95,Iroha-ya Inn
tura,IN,74.93,light rain,25.52,90.22,Hotel RIKMAN Continental
mar del plata,AR,55.4,clear sky,-38.0,-57.56,Gran Hotel Mar del Plata habitaciones
salalah,OM,80.6,broken clouds,17.02,54.09,HAMDAN PLAZA HOTEL
oistins,BB,87.8,scattered clouds,13.07,-59.53,Butterfly Beach Hotel
hilo,US,80.6,few clouds,19.73,-155.09,Hilo Hawaiian Hotel
kapit,MY,72.88,light rain,2.02,112.93,Hotel Meligai Kapit
albany,US,78.01,scattered clouds,42.6,-73.97,
torbay,CA,66.99,few clouds,47.67,-52.73,Gallows Cove
cap malheureux,MU,73.0,broken clouds,-19.98,57.61,Pereybere Hotel & Spa
hobart,AU,60.01,overcast clouds,-42.88,147.33,St Ives Hobart Accommodation Tasmania
atuona,PF,78.87,few clouds,-9.8,-139.03,Villa Enata
santana do acarau,BR,99.95,clear sky,-3.46,-40.21,Chácara Mister Juan
bend,US,75.2,clear sky,44.06,-121.32,Fairfield Inn & Suites by Marriott Bend Downtown
funadhoo,MV,82.72,overcast clouds,6.15,73.27,Dhaffalhu Tourist Lodge
port alfred,ZA,62.04,clear sky,-33.59,26.89,The Halyards Hotel
butaritari,KI,82.89,scattered clouds,3.07,172.79,Isles Sunset Lodge
castro,BR,80.65,few clouds,-24.79,-50.01,CHACARA BAILLY
arraial do cabo,BR,80.6,few clouds,-22.97,-42.03,Pousada Porto Praia
rikitea,PF,73.18,clear sky,-23.12,-134.97,Pension Maro'i
severo-kurilsk,RU,52.77,scattered clouds,50.68,156.12,Kak Doma
chuy,UY,57.87,scattered clouds,-33.7,-53.46,Nuevo Hotel Plaza
arraial do cabo,BR,80.6,few clouds,-22.97,-42.03,Pousada Porto Praia
kieta,PG,79.02,scattered clouds,-6.22,155.63,
kapaa,US,82.4,scattered clouds,22.08,-159.32,Sheraton Kauai Resort at Coconut Beach
bredasdorp,ZA,60.8,clear sky,-34.53,20.04,Bredasdorp Country Manor
ponta do sol,PT,75.0,scattered clouds,32.67,-17.1,Hotel do Campo
garowe,SO,83.46,overcast clouds,8.41,48.48,Curubo Hotel
karratha,AU,72.54,clear sky,-20.74,116.85,ibis Styles Karratha
carahue,CL,55.4,scattered clouds,-38.7,-73.17,Hospedaje Familiar
avarua,CK,73.4,few clouds,-21.21,-159.78,Paradise Inn
faanui,PF,77.79,clear sky,-16.48,-151.75,Bora-Bora Pearl Beach Resort & Spa
torbay,CA,66.99,few clouds,47.67,-52.73,Gallows Cove
pemangkat,ID,76.39,overcast clouds,1.17,108.97,Kost H.Syamsuddin
butaritari,KI,82.89,scattered clouds,3.07,172.79,Isles Sunset Lodge
cairns,AU,69.8,overcast clouds,-16.92,145.77,Mantra Trilogy Cairns
banda aceh,ID,80.47,overcast clouds,5.56,95.32,OYO 884 Rumoh PMI Hotel
vestmanna,FO,51.8,drizzle,62.16,-7.17,Budget Guesthouse Borgustova
ponta do sol,PT,75.0,scattered clouds,32.67,-17.1,Hotel do Campo
muzhi,RU,52.27,overcast clouds,65.37,64.67,
castro,BR,80.65,few clouds,-24.79,-50.01,CHACARA BAILLY
ribeira grande,PT,71.6,scattered clouds,38.52,-28.7,Quinta da Meia Eira
ribeira grande,PT,71.6,scattered clouds,38.52,-28.7,Quinta da Meia Eira
albany,US,78.01,scattered clouds,42.6,-73.97,
ponta do sol,PT,75.0,scattered clouds,32.67,-17.1,Hotel do Campo
jamestown,US,66.99,few clouds,42.1,-79.24,Hampton Inn & Suites Jamestown
avarua,CK,73.4,few clouds,-21.21,-159.78,Paradise Inn
necochea,AR,61.0,clear sky,-38.55,-58.74,dyd -mar Hotel
norman wells,CA,51.8,overcast clouds,65.28,-126.83,Heritage Hotel
bengkulu,ID,76.1,light rain,-3.8,102.27,Grage Hotel Bengkulu
laela,TZ,67.1,broken clouds,-8.57,32.05,
rikitea,PF,73.18,clear sky,-23.12,-134.97,Pension Maro'i
port alfred,ZA,62.04,clear sky,-33.59,26.89,The Halyards Hotel
erzin,TR,84.0,clear sky,36.96,36.2,Artemis Otel
san quintin,MX,81.97,clear sky,30.48,-115.95,Old Mill Hotel
albany,US,78.01,scattered clouds,42.6,-73.97,
puerto ayora,EC,77.0,scattered clouds,-0.74,-90.35,Finch Bay Galapagos Hotel
port elizabeth,ZA,59.0,few clouds,-33.92,25.57,39 On Nile Guest House
fortuna,US,86.0,clear sky,40.6,-124.16,Super 8 by Wyndham Fortuna
albany,US,78.01,scattered clouds,42.6,-73.97,
laguna,US,93.99,haze,38.42,-121.42,Holiday Inn Express & Suites Elk Grove Central - Hwy 99
vaini,TO,68.0,broken clouds,-21.2,-175.2,Keleti Beach Resort
broome,US,79.0,clear sky,42.25,-75.83,Chenango Valley State Park
hilo,US,80.6,few clouds,19.73,-155.09,Hilo Hawaiian Hotel
puerto ayora,EC,77.0,scattered clouds,-0.74,-90.35,Finch Bay Galapagos Hotel
arawa,PG,77.4,scattered clouds,-6.21,155.54,Coastline Guest House
severo-kurilsk,RU,52.77,scattered clouds,50.68,156.12,Kak Doma
yellowknife,CA,51.01,broken clouds,62.46,-114.35,The Explorer Hotel
hobyo,SO,76.32,few clouds,5.35,48.53,Osmani Hotel
luorong,CN,75.85,light rain,24.41,109.61,荣立大酒店
makuyuni,TZ,69.58,few clouds,-4.73,38.1,
guerrero negro,MX,88.11,clear sky,27.98,-114.06,"Casa Laguna, Bed & Breakfast"
nioaque,BR,97.12,overcast clouds,-21.14,-55.83,Nioaque Novo Hotel
airai,TL,56.57,broken clouds,-8.93,125.41,Juvinal Martin
sambava,MG,71.58,clear sky,-14.27,50.17,Melrose
butaritari,KI,82.89,scattered clouds,3.07,172.79,Isles Sunset Lodge
ribeira grande,PT,71.6,scattered clouds,38.52,-28.7,Quinta da Meia Eira
yellowknife,CA,51.01,broken clouds,62.46,-114.35,The Explorer Hotel
rikitea,PF,73.18,clear sky,-23.12,-134.97,Pension Maro'i
bengkulu,ID,76.1,light rain,-3.8,102.27,Grage Hotel Bengkulu
korla,CN,75.99,broken clouds,41.76,86.15,Gulisitan Hotel
norman wells,CA,51.8,overcast clouds,65.28,-126.83,Heritage Hotel
port alfred,ZA,62.04,clear sky,-33.59,26.89,The Halyards Hotel
san quintin,MX,81.97,clear sky,30.48,-115.95,Old Mill Hotel
san patricio,MX,86.0,broken clouds,19.22,-104.7,Hotel Cabo Blanco
agadir,MA,75.2,clear sky,30.42,-9.6,Iberostar Founty Beach
marsaxlokk,MT,80.01,few clouds,35.84,14.54,Water's Edge
kaniama,CD,78.62,clear sky,-7.57,24.18,
mersing,MY,77.0,broken clouds,2.43,103.84,Timotel Hotel
victoria,HK,84.99,moderate rain,22.29,114.16,Mini Hotel Central
hermanus,ZA,59.63,clear sky,-34.42,19.23,Misty Waves Boutique Hotel
avarua,CK,73.4,few clouds,-21.21,-159.78,Paradise Inn
santa rosa,PH,80.6,broken clouds,14.31,121.11,Erlyn’s Sta Rosa City Home
arraial do cabo,BR,80.6,few clouds,-22.97,-42.03,Pousada Porto Praia
cidreira,BR,57.69,moderate rain,-30.18,-50.21,Hotel Castelo
cape town,ZA,63.0,clear sky,-33.93,18.42,Southern Sun Waterfront Cape Town
torbay,CA,66.99,few clouds,47.67,-52.73,Gallows Cove
hermanus,ZA,59.63,clear sky,-34.42,19.23,Misty Waves Boutique Hotel
carnarvon,AU,64.4,broken clouds,-24.87,113.63,Hospitality Carnarvon
san cristobal,VE,89.6,scattered clouds,7.77,-72.22,Pirineos
rikitea,PF,73.18,clear sky,-23.12,-134.97,Pension Maro'i
ponta do sol,PT,75.0,scattered clouds,32.67,-17.1,Hotel do Campo
kambove,CD,63.05,broken clouds,-10.88,26.6,Couvant des soeurs catholiques
gamba,GA,74.73,broken clouds,-2.65,10.0,
progreso,MX,96.01,broken clouds,21.28,-89.67,Playa Linda Hotel
milicz,PL,61.0,clear sky,51.53,17.27,"Agroturystyka ""Przy Lesie"" - pokoje gościnne Milicz"
kapaa,US,82.4,scattered clouds,22.08,-159.32,Sheraton Kauai Resort at Coconut Beach
brasileia,BR,96.8,thunderstorm,-11.02,-68.75,Pousada Tobias
necochea,AR,61.0,clear sky,-38.55,-58.74,dyd -mar Hotel
rikitea,PF,73.18,clear sky,-23.12,-134.97,Pension Maro'i
albany,US,78.01,scattered clouds,42.6,-73.97,
rikitea,PF,73.18,clear sky,-23.12,-134.97,Pension Maro'i
portland,US,78.01,scattered clouds,45.52,-122.68,Portland Marriott City Center
hermanus,ZA,59.63,clear sky,-34.42,19.23,Misty Waves Boutique Hotel
hobart,AU,60.01,overcast clouds,-42.88,147.33,St Ives Hobart Accommodation Tasmania
hilo,US,80.6,few clouds,19.73,-155.09,Hilo Hawaiian Hotel
mafinga,TZ,72.0,broken clouds,-7.25,35.07,
guozhen,CN,71.15,scattered clouds,34.37,107.36,Yucai Hotel
albany,US,78.01,scattered clouds,42.6,-73.97,
kruisfontein,ZA,61.0,clear sky,-34.0,24.73,Oyster Bay House Rental
balkhash,KZ,59.36,clear sky,46.84,74.98,Family
bathsheba,BB,87.8,scattered clouds,13.22,-59.52,Atlantis Hotel
betsiamites,CA,73.4,overcast clouds,48.94,-68.65,Siège social - Station Uapishka
grand baie,MU,73.0,broken clouds,-20.02,57.58,Trou aux Biches Beachcomber Golf Resort & Spa
comodoro rivadavia,AR,69.8,broken clouds,-45.87,-67.5,Austral Hotel
guerrero negro,MX,88.11,clear sky,27.98,-114.06,"Casa Laguna, Bed & Breakfast"
mangrol,IN,82.53,overcast clouds,21.12,70.12,Hotel The Royal Honours
de-kastri,RU,58.64,overcast clouds,51.47,140.78,Somon Hotel
hobart,AU,60.01,overcast clouds,-42.88,147.33,St Ives Hobart Accommodation Tasmania
ayr,GB,60.8,shower rain,55.46,-4.63,Mercure Ayr Hotel
albany,US,78.01,scattered clouds,42.6,-73.97,
rikitea,PF,73.18,clear sky,-23.12,-134.97,Pension Maro'i
moshupa,BW,66.2,clear sky,-24.78,25.42,
manchester,GB,61.0,overcast clouds,53.48,-2.24,Hotel ibis Manchester Centre 96 Portland Street
palasa,IN,81.12,broken clouds,18.77,84.42,Malla Krishana apartment
hithadhoo,MV,82.9,overcast clouds,-0.6,73.08,Scoop Guest House
mar del plata,AR,55.4,clear sky,-38.0,-57.56,Gran Hotel Mar del Plata habitaciones
minatitlan,MX,86.0,broken clouds,17.98,-94.52,Grand Regency Express
jamestown,US,66.99,few clouds,42.1,-79.24,Hampton Inn & Suites Jamestown
ponta do sol,PT,75.0,scattered clouds,32.67,-17.1,Hotel do Campo
hailar,CN,52.65,scattered clouds,49.2,119.7,Holiday Inn & Suites Hulunbuir
lebu,CL,53.6,broken clouds,-37.62,-73.65,Hostal Las Lilas
socorro,US,89.6,scattered clouds,31.65,-106.3,guarderia imss papalote
divnoye,RU,72.16,clear sky,45.91,43.35,Motel Manych-Gudilo
rikitea,PF,73.18,clear sky,-23.12,-134.97,Pension Maro'i
yellowknife,CA,51.01,broken clouds,62.46,-114.35,The Explorer Hotel
mongo,TD,78.39,light rain,12.18,18.69,
kavieng,PG,82.58,clear sky,-2.57,150.8,Nusa Island Retreat
hirara,JP,80.87,scattered clouds,24.8,125.28,Hotel Atoll Emerald Miyakojima
cape town,ZA,63.0,clear sky,-33.93,18.42,Southern Sun Waterfront Cape Town
biak,ID,75.38,overcast clouds,-0.91,122.88,Kost Ariz
lagoa,PT,70.07,scattered clouds,39.05,-27.98,Casa Das Faias
cidreira,BR,57.69,moderate rain,-30.18,-50.21,Hotel Castelo
rikitea,PF,73.18,clear sky,-23.12,-134.97,Pension Maro'i
kununurra,AU,69.8,broken clouds,-15.77,128.73,Hotel Kununurra
chuy,UY,57.87,scattered clouds,-33.7,-53.46,Nuevo Hotel Plaza
saint-philippe,RE,69.8,mist,-21.36,55.77,"Chambres d'hôte ""La Trinité"""
rikitea,PF,73.18,clear sky,-23.12,-134.97,Pension Maro'i
vestmanna,FO,51.8,drizzle,62.16,-7.17,Budget Guesthouse Borgustova
kruisfontein,ZA,61.0,clear sky,-34.0,24.73,Oyster Bay House Rental
hilo,US,80.6,few clouds,19.73,-155.09,Hilo Hawaiian Hotel
rikitea,PF,73.18,clear sky,-23.12,-134.97,Pension Maro'i
castro,BR,80.65,few clouds,-24.79,-50.01,CHACARA BAILLY
auki,SB,76.98,clear sky,-8.77,160.7,Auki Motel
arraial do cabo,BR,80.6,few clouds,-22.97,-42.03,Pousada Porto Praia
sorland,NO,53.6,light rain,67.67,12.69,Sjybrygga fiskecamp
hasaki,JP,80.6,few clouds,35.73,140.83,Inubosaki Kanko Hotel
port alfred,ZA,62.04,clear sky,-33.59,26.89,The Halyards Hotel
san quintin,MX,81.97,clear sky,30.48,-115.95,Old Mill Hotel
kodiak,US,53.6,clear sky,57.79,-152.41,Best Western Kodiak Inn and Convention Center
leninsk,RU,69.01,overcast clouds,48.71,45.2,Turbaza Odisseya
salalah,OM,80.6,broken clouds,17.02,54.09,HAMDAN PLAZA HOTEL
san quintin,MX,81.97,clear sky,30.48,-115.95,Old Mill Hotel
camabatela,AO,69.93,light rain,-8.19,15.38,Pensão E Restaurantes
severo-kurilsk,RU,52.77,scattered clouds,50.68,156.12,Kak Doma
sabzevar,IR,70.07,clear sky,36.21,57.68,پارکینگ وسایل سنگین جنوب
rikitea,PF,73.18,clear sky,-23.12,-134.97,Pension Maro'i
hilo,US,80.6,few clouds,19.73,-155.09,Hilo Hawaiian Hotel
georgetown,MY,80.6,few clouds,5.41,100.34,Cititel Penang
gouyave,GD,86.0,light intensity shower rain,12.16,-61.73,Rumboat Retreat
cururupu,BR,87.66,clear sky,-1.83,-44.87,Pousada Través'cia
amos,CA,66.2,broken clouds,48.57,-78.12,"Amosphère, complexe hôtelier"
san juan,AR,69.44,scattered clouds,-31.54,-68.54,Hotel Provincial
albany,US,78.01,scattered clouds,42.6,-73.97,
tabou,CI,77.4,broken clouds,4.42,-7.35,hotêl doufoulougou
pechenga,RU,53.6,broken clouds,69.53,31.17,
quatre cocos,MU,73.0,shower rain,-20.21,57.76,Emeraude Beach Attitude Hotel
beyneu,KZ,68.97,overcast clouds,45.32,55.2,NUR
coquimbo,CL,59.0,clear sky,-29.95,-71.34,Hotel San Juan
hermanus,ZA,59.63,clear sky,-34.42,19.23,Misty Waves Boutique Hotel
erenhot,CN,63.05,clear sky,43.65,111.98,Erenhot Rurouni Youth Hostel
calbuco,CL,53.6,broken clouds,-41.77,-73.13,Hotel Colonial
umm lajj,SA,89.15,clear sky,25.02,37.27,Moon light Furnished Units
vaini,TO,68.0,broken clouds,-21.2,-175.2,Keleti Beach Resort
paso de los toros,UY,62.6,broken clouds,-32.82,-56.52,Complejo Isabelino
rikitea,PF,73.18,clear sky,-23.12,-134.97,Pension Maro'i
east london,ZA,59.0,few clouds,-33.02,27.91,Tu Casa
ust-tsilma,RU,61.63,overcast clouds,65.44,52.15,U Praskov'i
katsuura,JP,82.99,scattered clouds,35.13,140.3,Katsuura Hotel Mikazuki
mount isa,AU,73.4,clear sky,-20.73,139.5,ibis Styles Mt Isa Verona
yellowknife,CA,51.01,broken clouds,62.46,-114.35,The Explorer Hotel
grand gaube,MU,73.0,overcast clouds,-20.01,57.66,Veranda Paul et Virginie Hotel & Spa
chuy,UY,57.87,scattered clouds,-33.7,-53.46,Nuevo Hotel Plaza
kapaa,US,82.4,scattered clouds,22.08,-159.32,Sheraton Kauai Resort at Coconut Beach
pala,TD,71.55,scattered clouds,9.36,14.9,Hotel Pala Palace
ismailia,EG,78.75,clear sky,30.6,32.27,Mercure Ismailia Forsan Island Hotel
kapaa,US,82.4,scattered clouds,22.08,-159.32,Sheraton Kauai Resort at Coconut Beach
sistranda,NO,51.8,light rain,63.73,8.83,Hotell Frøya
micheweni,TZ,75.51,few clouds,-4.97,39.83,
safaga,EG,95.0,clear sky,26.73,33.94,Lamar Resort Abu Soma
mar del plata,AR,55.4,clear sky,-38.0,-57.56,Gran Hotel Mar del Plata habitaciones
vaini,TO,68.0,broken clouds,-21.2,-175.2,Keleti Beach Resort
salalah,OM,80.6,broken clouds,17.02,54.09,HAMDAN PLAZA HOTEL
santander,ES,68.0,few clouds,43.46,-3.8,Abba Santander Hotel
san felipe,VE,85.59,moderate rain,10.34,-68.74,Posada Llovizna Rodríguez
katsuura,JP,82.99,scattered clouds,35.13,140.3,Katsuura Hotel Mikazuki
vao,NC,69.26,overcast clouds,-22.67,167.48,Hotel Kou-Bugny
kumluca,TR,84.18,clear sky,36.37,30.29,TurkuazKöy
havelock,US,84.2,clear sky,34.88,-76.9,Sherwood Motel
inhambane,MZ,66.2,few clouds,-23.86,35.38,Oceano
avarua,CK,73.4,few clouds,-21.21,-159.78,Paradise Inn
new norfolk,AU,60.01,overcast clouds,-42.78,147.06,The Shingles Riverside Cottages
hobart,AU,60.01,overcast clouds,-42.88,147.33,St Ives Hobart Accommodation Tasmania
bubaque,GW,80.38,scattered clouds,11.28,-15.83,Casa Dora - Mango Lodge
victoria,HK,84.99,moderate rain,22.29,114.16,Mini Hotel Central
akyab,MM,82.69,overcast clouds,20.15,92.9,Hotel Memory
codrington,AU,66.34,overcast clouds,-38.27,141.97,Codrington Gardens Bed And Breakfast
inta,RU,58.98,overcast clouds,66.03,60.17,Apartments in Inta city
hilo,US,80.6,few clouds,19.73,-155.09,Hilo Hawaiian Hotel
poole,GB,63.0,scattered clouds,50.72,-2.0,Thistle Poole Hotel
victoria,HK,84.99,moderate rain,22.29,114.16,Mini Hotel Central
puerto carreno,CO,84.2,shower rain,6.19,-67.49,Casa Hotel Victoria
bloomingdale,US,93.0,overcast clouds,27.89,-82.24,Travel Club for Free
albany,US,78.01,scattered clouds,42.6,-73.97,
komsomolskiy,UZ,60.8,overcast clouds,40.43,71.72,Ikathouse
rikitea,PF,73.18,clear sky,-23.12,-134.97,Pension Maro'i
salalah,OM,80.6,broken clouds,17.02,54.09,HAMDAN PLAZA HOTEL
mar del plata,AR,55.4,clear sky,-38.0,-57.56,Gran Hotel Mar del Plata habitaciones
new norfolk,AU,60.01,overcast clouds,-42.78,147.06,The Shingles Riverside Cottages
ancud,CL,55.0,overcast clouds,-41.87,-73.82,Hotel Arena Gruesa
rikitea,PF,73.18,clear sky,-23.12,-134.97,Pension Maro'i
hithadhoo,MV,82.9,overcast clouds,-0.6,73.08,Scoop Guest House
georgetown,MY,80.6,few clouds,5.41,100.34,Cititel Penang
hermanus,ZA,59.63,clear sky,-34.42,19.23,Misty Waves Boutique Hotel
saldanha,ZA,62.6,clear sky,-33.01,17.94,Blue Bay Lodge
pucallpa,PE,93.2,scattered clouds,-8.38,-74.55,Hotel Sol de Oriente - Pucallpa
burgos,ES,59.0,clear sky,42.34,-3.71,Hotel Corona de Castilla (Sercotel)
east london,ZA,59.0,few clouds,-33.02,27.91,Tu Casa
vaini,TO,68.0,broken clouds,-21.2,-175.2,Keleti Beach Resort
sagua de tanamo,CU,84.33,overcast clouds,20.58,-75.24,
east london,ZA,59.0,few clouds,-33.02,27.91,Tu Casa
torbay,CA,66.99,few clouds,47.67,-52.73,Gallows Cove
barda,AZ,75.33,scattered clouds,40.37,47.13,Kral Hotel
toro,CO,80.6,scattered clouds,4.61,-76.08,ChiloRanch Adventure
comodoro rivadavia,AR,69.8,broken clouds,-45.87,-67.5,Austral Hotel
kodiak,US,53.6,clear sky,57.79,-152.41,Best Western Kodiak Inn and Convention Center
arraial do cabo,BR,80.6,few clouds,-22.97,-42.03,Pousada Porto Praia
kirakira,SB,77.92,clear sky,-10.45,161.92,SanBiz Lodge
sorland,NO,53.6,light rain,67.67,12.69,Sjybrygga fiskecamp
cape town,ZA,63.0,clear sky,-33.93,18.42,Southern Sun Waterfront Cape Town
poum,NC,72.03,overcast clouds,-20.23,164.02,Gîte kajeon
faanui,PF,77.79,clear sky,-16.48,-151.75,Bora-Bora Pearl Beach Resort & Spa
jamestown,US,66.99,few clouds,42.1,-79.24,Hampton Inn & Suites Jamestown
arraial do cabo,BR,80.6,few clouds,-22.97,-42.03,Pousada Porto Praia
east london,ZA,59.0,few clouds,-33.02,27.91,Tu Casa
sandovo,RU,57.18,overcast clouds,58.46,36.41,
carnarvon,AU,64.4,broken clouds,-24.87,113.63,Hospitality Carnarvon
juneau,US,53.01,overcast clouds,58.3,-134.42,"Baranof Downtown, BW Signature Collection"
nichinan,JP,72.19,clear sky,31.6,131.37,Guest House Aki
saint-philippe,RE,69.8,mist,-21.36,55.77,"Chambres d'hôte ""La Trinité"""
terrasini,IT,81.0,scattered clouds,38.15,13.08,Florio Park Hotel
rikitea,PF,73.18,clear sky,-23.12,-134.97,Pension Maro'i
mbeya,TZ,59.0,overcast clouds,-8.9,33.45,Leda Lodge
jamestown,US,66.99,few clouds,42.1,-79.24,Hampton Inn & Suites Jamestown
sobolevo,RU,55.47,very heavy rain,54.43,31.9,
hilo,US,80.6,few clouds,19.73,-155.09,Hilo Hawaiian Hotel
castro,BR,80.65,few clouds,-24.79,-50.01,CHACARA BAILLY
tecoanapa,MX,85.73,clear sky,16.52,-98.75,Hotel Manglares
beroroha,MG,69.03,clear sky,-21.67,45.17,
faanui,PF,77.79,clear sky,-16.48,-151.75,Bora-Bora Pearl Beach Resort & Spa
georgetown,MY,80.6,few clouds,5.41,100.34,Cititel Penang
jamestown,US,66.99,few clouds,42.1,-79.24,Hampton Inn & Suites Jamestown
kapaa,US,82.4,scattered clouds,22.08,-159.32,Sheraton Kauai Resort at Coconut Beach
puerto ayora,EC,77.0,scattered clouds,-0.74,-90.35,Finch Bay Galapagos Hotel
hovd,MN,52.56,overcast clouds,48.01,91.64,Hotel Khovd
erzurum,TR,68.0,clear sky,40.0,41.5,
lagoa,PT,70.07,scattered clouds,39.05,-27.98,Casa Das Faias
albany,US,78.01,scattered clouds,42.6,-73.97,
hobart,AU,60.01,overcast clouds,-42.88,147.33,St Ives Hobart Accommodation Tasmania
mar del plata,AR,55.4,clear sky,-38.0,-57.56,Gran Hotel Mar del Plata habitaciones
pisco,PE,64.99,scattered clouds,-13.7,-76.22,Hostal San Isidro Oficial
faanui,PF,77.79,clear sky,-16.48,-151.75,Bora-Bora Pearl Beach Resort & Spa
hithadhoo,MV,82.9,overcast clouds,-0.6,73.08,Scoop Guest House
atuona,PF,78.87,few clouds,-9.8,-139.03,Villa Enata
arraial do cabo,BR,80.6,few clouds,-22.97,-42.03,Pousada Porto Praia
hobart,AU,60.01,overcast clouds,-42.88,147.33,St Ives Hobart Accommodation Tasmania
albany,US,78.01,scattered clouds,42.6,-73.97,
rikitea,PF,73.18,clear sky,-23.12,-134.97,Pension Maro'i
portland,US,78.01,scattered clouds,45.52,-122.68,Portland Marriott City Center
cumpas,MX,85.75,broken clouds,29.98,-109.78,Hotel La Palma
bambous virieux,MU,73.0,shower rain,-20.34,57.76,Casa Tia Villa
yellowknife,CA,51.01,broken clouds,62.46,-114.35,The Explorer Hotel
bambous virieux,MU,73.0,shower rain,-20.34,57.76,Casa Tia Villa
baiyin,CN,70.0,clear sky,36.56,104.21,GreenTree Alliance Gansu Baiyin Renmin Road Hotel
bintulu,MY,77.0,light rain,3.17,113.03,900 Boutique INN
kapaa,US,82.4,scattered clouds,22.08,-159.32,Sheraton Kauai Resort at Coconut Beach
kruisfontein,ZA,61.0,clear sky,-34.0,24.73,Oyster Bay House Rental
tezu,IN,75.04,overcast clouds,27.92,96.17,Circuit House
kloulklubed,PW,85.41,overcast clouds,7.04,134.26,Storyboard Beach Resort
agropoli,IT,77.0,broken clouds,40.35,15.0,B&B Baia di Trentova
lapu-lapu,PH,82.4,scattered clouds,10.31,123.95,Radisson Blu Cebu
pinerovka,RU,63.64,overcast clouds,51.56,43.07,Гостиница на вокзале Балашов
hilo,US,80.6,few clouds,19.73,-155.09,Hilo Hawaiian Hotel
kinna,SE,55.99,few clouds,57.51,12.69,Hanatorps Camping
albany,US,78.01,scattered clouds,42.6,-73.97,
norman wells,CA,51.8,overcast clouds,65.28,-126.83,Heritage Hotel
kununurra,AU,69.8,broken clouds,-15.77,128.73,Hotel Kununurra
acarau,BR,84.0,clear sky,-2.89,-40.12,castelo pizzaria
kapaa,US,82.4,scattered clouds,22.08,-159.32,Sheraton Kauai Resort at Coconut Beach
constitucion,CL,56.64,broken clouds,-35.33,-72.42,Hotel Boutique Las Azucenas
cape town,ZA,63.0,clear sky,-33.93,18.42,Southern Sun Waterfront Cape Town
arraial do cabo,BR,80.6,few clouds,-22.97,-42.03,Pousada Porto Praia
lebu,CL,53.6,broken clouds,-37.62,-73.65,Hostal Las Lilas
port alfred,ZA,62.04,clear sky,-33.59,26.89,The Halyards Hotel
rikitea,PF,73.18,clear sky,-23.12,-134.97,Pension Maro'i
coquimbo,CL,59.0,clear sky,-29.95,-71.34,Hotel San Juan
yellowknife,CA,51.01,broken clouds,62.46,-114.35,The Explorer Hotel
hithadhoo,MV,82.9,overcast clouds,-0.6,73.08,Scoop Guest House
bereda,ES,69.01,scattered clouds,43.27,-7.54,Pazo de Verdes
cape town,ZA,63.0,clear sky,-33.93,18.42,Southern Sun Waterfront Cape Town
los llanos de aridane,ES,77.0,few clouds,28.66,-17.92,Valle Aridane
east london,ZA,59.0,few clouds,-33.02,27.91,Tu Casa
brantford,CA,72.0,overcast clouds,43.13,-80.27,Comfort Inn
yulara,AU,66.2,clear sky,-25.24,130.99,Desert Gardens Hotel - Ayers Rock Resort
jamestown,US,66.99,few clouds,42.1,-79.24,Hampton Inn & Suites Jamestown
airai,TL,56.57,broken clouds,-8.93,125.41,Juvinal Martin
nalut,LY,89.15,broken clouds,30.33,10.85,
kodiak,US,53.6,clear sky,57.79,-152.41,Best Western Kodiak Inn and Convention Center
port alfred,ZA,62.04,clear sky,-33.59,26.89,The Halyards Hotel
salalah,OM,80.6,broken clouds,17.02,54.09,HAMDAN PLAZA HOTEL
malanje,AO,78.64,clear sky,-9.54,16.34,Malanje Hotel
saint-philippe,RE,69.8,mist,-21.36,55.77,"Chambres d'hôte ""La Trinité"""
ejea de los caballeros,ES,68.0,clear sky,42.13,-1.14,Hotel Ciudad De Ejea
lerik,AZ,73.4,overcast clouds,38.77,48.41,Hotel Lerik
hami,CN,74.73,broken clouds,42.8,93.45,Laoyutang Resort
anzio,IT,75.99,clear sky,41.49,12.62,Hotel Lido Garda
mar del plata,AR,55.4,clear sky,-38.0,-57.56,Gran Hotel Mar del Plata habitaciones
hermanus,ZA,59.63,clear sky,-34.42,19.23,Misty Waves Boutique Hotel
japura,ID,73.29,clear sky,-0.32,102.35,Rumah mbah Jamah
sao jose da coroa grande,BR,77.72,clear sky,-8.9,-35.15,Crôa Mares Hotel
port elizabeth,ZA,59.0,few clouds,-33.92,25.57,39 On Nile Guest House
vaini,TO,68.0,broken clouds,-21.2,-175.2,Keleti Beach Resort
castro,BR,80.65,few clouds,-24.79,-50.01,CHACARA BAILLY
port lincoln,AU,58.73,overcast clouds,-34.73,135.87,Port Lincoln Hotel
bengkulu,ID,76.1,light rain,-3.8,102.27,Grage Hotel Bengkulu
coahuayana,MX,78.8,broken clouds,18.73,-103.68,Hotel Los Arcos
shahr-e kord,IR,68.0,few clouds,32.33,50.86,Sharekord Tourism Hotel
vaini,TO,68.0,broken clouds,-21.2,-175.2,Keleti Beach Resort
naze,JP,75.2,scattered clouds,28.37,129.48,奄美ポートタワーホテル
constitucion,CL,56.64,broken clouds,-35.33,-72.42,Hotel Boutique Las Azucenas
aylmer,CA,73.0,overcast clouds,42.77,-80.98,Aylmer Trillium Park
faranah,GN,73.63,moderate rain,10.04,-10.74,Chez mon oncle
fort-shevchenko,KZ,78.46,overcast clouds,44.51,50.26,Oasis hotel Bautino
mackay,AU,66.2,broken clouds,-21.15,149.2,International Lodge Motel
rikitea,PF,73.18,clear sky,-23.12,-134.97,Pension Maro'i
culiacan,MX,87.01,overcast clouds,24.8,-107.39,Hotel Lucerna Culiacán
kidal,ML,94.69,scattered clouds,18.44,1.41,
talakan,RU,58.96,overcast clouds,50.32,130.37,
ambilobe,MG,69.71,clear sky,-13.2,49.05,Hôtel & Restaurant DIANA Ambilobe
bada,RU,50.76,clear sky,51.39,109.87,Kafe Gostinnitsa
nikolskoye,RU,55.4,broken clouds,59.7,30.79,Tourist House - Sablino
terrace,CA,59.0,few clouds,54.52,-128.6,Northern Motor Inn
benguela,AO,72.7,clear sky,-12.58,13.41,Hotel Praia Morena
yakima,US,82.4,clear sky,46.47,-120.67,
ambilobe,MG,69.71,clear sky,-13.2,49.05,Hôtel & Restaurant DIANA Ambilobe
castro,BR,80.65,few clouds,-24.79,-50.01,CHACARA BAILLY
rikitea,PF,73.18,clear sky,-23.12,-134.97,Pension Maro'i
rikitea,PF,73.18,clear sky,-23.12,-134.97,Pension Maro'i
hilo,US,80.6,few clouds,19.73,-155.09,Hilo Hawaiian Hotel
tabou,CI,77.4,broken clouds,4.42,-7.35,hotêl doufoulougou
santa cruz do capibaribe,BR,82.0,clear sky,-7.96,-36.2,Etiqueta Hotel
utica,US,80.6,clear sky,43.1,-75.23,Days Inn by Wyndham Utica
guerrero negro,MX,88.11,clear sky,27.98,-114.06,"Casa Laguna, Bed & Breakfast"
hasaki,JP,80.6,few clouds,35.73,140.83,Inubosaki Kanko Hotel
shingu,JP,75.87,clear sky,33.73,135.98,Shingu UI Hotel
vaini,TO,68.0,broken clouds,-21.2,-175.2,Keleti Beach Resort
butaritari,KI,82.89,scattered clouds,3.07,172.79,Isles Sunset Lodge
jamestown,US,66.99,few clouds,42.1,-79.24,Hampton Inn & Suites Jamestown
san quintin,MX,81.97,clear sky,30.48,-115.95,Old Mill Hotel
madang,PG,77.11,few clouds,-5.22,145.8,Comfort Inn Hotel
saint-philippe,RE,69.8,mist,-21.36,55.77,"Chambres d'hôte ""La Trinité"""
rudnaya pristan,RU,66.16,overcast clouds,44.36,135.81,Kekur
brodokalmak,RU,55.4,few clouds,55.57,62.08,Stoybishche. Lesnaya Stoyanka
saldanha,ZA,62.6,clear sky,-33.01,17.94,Blue Bay Lodge
bambous virieux,MU,73.0,shower rain,-20.34,57.76,Casa Tia Villa
kavieng,PG,82.58,clear sky,-2.57,150.8,Nusa Island Retreat
chuy,UY,57.87,scattered clouds,-33.7,-53.46,Nuevo Hotel Plaza
samarai,PG,77.58,light rain,-10.62,150.67,Nuli Sapi
saint george,US,93.0,clear sky,37.1,-113.58,Best Western Plus Abbey Inn
bethel,US,78.01,clear sky,41.37,-73.41,Courtyard by Marriott Danbury
kirakira,SB,77.92,clear sky,-10.45,161.92,SanBiz Lodge
hobart,AU,60.01,overcast clouds,-42.88,147.33,St Ives Hobart Accommodation Tasmania
rikitea,PF,73.18,clear sky,-23.12,-134.97,Pension Maro'i
vao,NC,69.26,overcast clouds,-22.67,167.48,Hotel Kou-Bugny
cape town,ZA,63.0,clear sky,-33.93,18.42,Southern Sun Waterfront Cape Town
yellowknife,CA,51.01,broken clouds,62.46,-114.35,The Explorer Hotel
hilo,US,80.6,few clouds,19.73,-155.09,Hilo Hawaiian Hotel
banjar,ID,78.8,few clouds,-8.19,114.97,The Hamsa Resort
rikitea,PF,73.18,clear sky,-23.12,-134.97,Pension Maro'i
butaritari,KI,82.89,scattered clouds,3.07,172.79,Isles Sunset Lodge
antofagasta,CL,59.0,few clouds,-23.65,-70.4,Holiday Inn Express Antofagasta
daru,PG,78.06,overcast clouds,-9.08,143.21,New century hotel
norman wells,CA,51.8,overcast clouds,65.28,-126.83,Heritage Hotel
namibe,AO,68.25,scattered clouds,-15.2,12.15,Hotel Chik Chik Namibe
manakara,MG,66.22,light rain,-22.13,48.02,La Residence Manakara
luwuk,ID,75.99,light rain,-0.95,122.79,Hotel Santika Luwuk
vaini,TO,68.0,broken clouds,-21.2,-175.2,Keleti Beach Resort
ketchikan,US,57.2,few clouds,55.34,-131.65,Snows Cove Lodge
castro,BR,80.65,few clouds,-24.79,-50.01,CHACARA BAILLY
lowestoft,GB,64.99,overcast clouds,52.48,1.75,Premier Inn Lowestoft hotel
victoria,HK,84.99,moderate rain,22.29,114.16,Mini Hotel Central
hobart,AU,60.01,overcast clouds,-42.88,147.33,St Ives Hobart Accommodation Tasmania
abidjan,CI,77.0,broken clouds,5.31,-4.02,ibis Abidjan Plateau
port alfred,ZA,62.04,clear sky,-33.59,26.89,The Halyards Hotel
sorland,NO,53.6,light rain,67.67,12.69,Sjybrygga fiskecamp
vaini,TO,68.0,broken clouds,-21.2,-175.2,Keleti Beach Resort
aracati,BR,87.73,clear sky,-4.56,-37.77,Motel Pousada Milleniun - Aracati-CE
kruisfontein,ZA,61.0,clear sky,-34.0,24.73,Oyster Bay House Rental
amahai,ID,76.08,light rain,-3.33,128.92,Peternakan Ayam Bangkok Manisso
georgetown,MY,80.6,few clouds,5.41,100.34,Cititel Penang
port alfred,ZA,62.04,clear sky,-33.59,26.89,The Halyards Hotel
jamestown,US,66.99,few clouds,42.1,-79.24,Hampton Inn & Suites Jamestown
cape town,ZA,63.0,clear sky,-33.93,18.42,Southern Sun Waterfront Cape Town
burnie,AU,52.0,overcast clouds,-41.07,145.92,Beachfront Voyager Motor Inn
port alfred,ZA,62.04,clear sky,-33.59,26.89,The Halyards Hotel
fairbanks,US,53.6,light rain,64.84,-147.72,Westmark Fairbanks Hotel & Conference Center
shimoda,JP,73.0,light rain,34.67,138.95,Shimoda Tokyu Hotel
biggar,GB,62.01,overcast clouds,55.62,-3.52,Hartree Estates
rikitea,PF,73.18,clear sky,-23.12,-134.97,Pension Maro'i
celestun,MX,85.66,clear sky,20.87,-90.4,Posada Lilia
sobolevo,RU,55.47,very heavy rain,54.43,31.9,
cape town,ZA,63.0,clear sky,-33.93,18.42,Southern Sun Waterfront Cape Town
college,US,53.6,broken clouds,64.86,-147.8,Pike's Waterfront Lodge
sao joao da barra,BR,84.2,few clouds,-21.64,-41.05,Pousada Porto De Canoas
dedougou,BF,78.26,few clouds,12.47,-3.47,Hôtel Bon Séjour
lagoa,PT,70.07,scattered clouds,39.05,-27.98,Casa Das Faias
ondjiva,AO,73.44,clear sky,-17.07,15.73,SOS Motel
laguna,US,93.99,haze,38.42,-121.42,Holiday Inn Express & Suites Elk Grove Central - Hwy 99
kapaa,US,82.4,scattered clouds,22.08,-159.32,Sheraton Kauai Resort at Coconut Beach
sao filipe,CV,79.5,light rain,14.9,-24.5,Tortuga B&B
atuona,PF,78.87,few clouds,-9.8,-139.03,Villa Enata
castro,BR,80.65,few clouds,-24.79,-50.01,CHACARA BAILLY
ponta do sol,PT,75.0,scattered clouds,32.67,-17.1,Hotel do Campo
tura,IN,74.93,light rain,25.52,90.22,Hotel RIKMAN Continental
sao gabriel da cachoeira,BR,91.4,broken clouds,-0.13,-67.09,Alarne - Área De Lazer Do Alto Rio Negro
rikitea,PF,73.18,clear sky,-23.12,-134.97,Pension Maro'i
atuona,PF,78.87,few clouds,-9.8,-139.03,Villa Enata
cape town,ZA,63.0,clear sky,-33.93,18.42,Southern Sun Waterfront Cape Town
rikitea,PF,73.18,clear sky,-23.12,-134.97,Pension Maro'i
inhambane,MZ,66.2,few clouds,-23.86,35.38,Oceano
jamestown,US,66.99,few clouds,42.1,-79.24,Hampton Inn & Suites Jamestown
strathpeffer,GB,62.01,broken clouds,57.59,-4.54,Bay Highland Hotel
kapaa,US,82.4,scattered clouds,22.08,-159.32,Sheraton Kauai Resort at Coconut Beach
buta,CD,71.15,overcast clouds,2.79,24.73,HOTEL BISO NA BISO
cabaiguan,CU,91.4,broken clouds,22.08,-79.5,Campismo Arroyo Lajas
balkhash,KZ,59.36,clear sky,46.84,74.98,Family
hithadhoo,MV,82.9,overcast clouds,-0.6,73.08,Scoop Guest House
ponta do sol,PT,75.0,scattered clouds,32.67,-17.1,Hotel do Campo
spanish town,JM,87.8,few clouds,17.99,-76.96,Shan's Cloud
san patricio,MX,86.0,broken clouds,19.22,-104.7,Hotel Cabo Blanco
alofi,NU,69.8,broken clouds,-19.06,-169.92,Taloa Heights
kalmunai,LK,82.76,overcast clouds,7.42,81.82,VS Villa
cape town,ZA,63.0,clear sky,-33.93,18.42,Southern Sun Waterfront Cape Town
saurimo,AO,73.98,clear sky,-9.66,20.39,Hotel Kawissa Saurimo
kropotkin,RU,72.61,clear sky,45.44,40.58,Hotel Europe Kropotkin
faanui,PF,77.79,clear sky,-16.48,-151.75,Bora-Bora Pearl Beach Resort & Spa
puerto ayora,EC,77.0,scattered clouds,-0.74,-90.35,Finch Bay Galapagos Hotel
atuona,PF,78.87,few clouds,-9.8,-139.03,Villa Enata
kongolo,CD,81.75,overcast clouds,-5.38,27.0,Hôtel Bouger Faire Bouger Rj Kanierra
menongue,AO,66.63,clear sky,-14.66,17.69,Ritz Lauca
faanui,PF,77.79,clear sky,-16.48,-151.75,Bora-Bora Pearl Beach Resort & Spa
albany,US,78.01,scattered clouds,42.6,-73.97,
umm kaddadah,SD,92.12,scattered clouds,13.6,26.69,
yellowknife,CA,51.01,broken clouds,62.46,-114.35,The Explorer Hotel
san patricio,MX,86.0,broken clouds,19.22,-104.7,Hotel Cabo Blanco
manzil kamil,TN,82.0,few clouds,35.62,10.67,Boukarra Ali
hobart,AU,60.01,overcast clouds,-42.88,147.33,St Ives Hobart Accommodation Tasmania
gifford,US,87.01,scattered clouds,27.68,-80.41,SpringHill Suites by Marriott Vero Beach
port alfred,ZA,62.04,clear sky,-33.59,26.89,The Halyards Hotel
jhargram,IN,81.23,heavy intensity rain,22.45,86.98,Sarada Hotel
faanui,PF,77.79,clear sky,-16.48,-151.75,Bora-Bora Pearl Beach Resort & Spa
catamarca,AR,72.0,clear sky,-28.47,-65.79,Amerian Catamarca Park Hotel
sitka,US,57.2,light rain,57.05,-135.33,Westmark Sitka
port hedland,AU,69.8,clear sky,-20.32,118.57,The Esplanade Hotel
asau,RO,62.01,clear sky,46.43,26.4,Casa Mika Ciobanus
rikitea,PF,73.18,clear sky,-23.12,-134.97,Pension Maro'i
butaritari,KI,82.89,scattered clouds,3.07,172.79,Isles Sunset Lodge
butaritari,KI,82.89,scattered clouds,3.07,172.79,Isles Sunset Lodge
port lincoln,AU,58.73,overcast clouds,-34.73,135.87,Port Lincoln Hotel
jamestown,US,66.99,few clouds,42.1,-79.24,Hampton Inn & Suites Jamestown
port hardy,CA,55.4,mist,50.7,-127.42,Airport Inn
cabo san lucas,MX,84.2,scattered clouds,22.89,-109.91,Hotel Tesoro Los Cabos
cabedelo,BR,84.2,few clouds,-6.98,-34.83,Lua Mansa Pousada
puerto ayora,EC,77.0,scattered clouds,-0.74,-90.35,Finch Bay Galapagos Hotel
vaini,TO,68.0,broken clouds,-21.2,-175.2,Keleti Beach Resort
saint-philippe,RE,69.8,mist,-21.36,55.77,"Chambres d'hôte ""La Trinité"""
chiang klang,TH,75.6,heavy intensity rain,19.29,100.86,Sangthongresort
albany,US,78.01,scattered clouds,42.6,-73.97,
hobart,AU,60.01,overcast clouds,-42.88,147.33,St Ives Hobart Accommodation Tasmania
mayor pablo lagerenza,PY,83.88,broken clouds,-19.93,-60.77,
galanta,SK,64.0,overcast clouds,48.19,17.73,Hotel Galanta
saint-philippe,RE,69.8,mist,-21.36,55.77,"Chambres d'hôte ""La Trinité"""
ketchikan,US,57.2,few clouds,55.34,-131.65,Snows Cove Lodge
hithadhoo,MV,82.9,overcast clouds,-0.6,73.08,Scoop Guest House
zhanaozen,KZ,70.03,overcast clouds,43.3,52.8,K.korabay 28A
gorele,TR,73.4,scattered clouds,41.03,39.0,Görele Öğretmenevi
peleduy,RU,50.88,overcast clouds,59.63,112.74,Гостиница «Уют»
oparino,RU,57.83,overcast clouds,59.85,48.28,"Gostinitsa ""Oparino"""
hobart,AU,60.01,overcast clouds,-42.88,147.33,St Ives Hobart Accommodation Tasmania
hobart,AU,60.01,overcast clouds,-42.88,147.33,St Ives Hobart Accommodation Tasmania
broome,US,79.0,clear sky,42.25,-75.83,Chenango Valley State Park
port hardy,CA,55.4,mist,50.7,-127.42,Airport Inn
prince rupert,CA,62.6,clear sky,54.32,-130.32,Crest Hotel
terney,RU,63.1,overcast clouds,45.05,136.61,Sikhote-Alin'
albany,US,78.01,scattered clouds,42.6,-73.97,
bathsheba,BB,87.8,scattered clouds,13.22,-59.52,Atlantis Hotel
avarua,CK,73.4,few clouds,-21.21,-159.78,Paradise Inn
houlton,US,73.99,few clouds,46.13,-67.84,Ivey's Motor Lodge Houlton by Magnuson Worldwide
port shepstone,ZA,65.95,few clouds,-30.74,30.45,My Den Beachfront B&B And Self-Catering
castro,BR,80.65,few clouds,-24.79,-50.01,CHACARA BAILLY
faanui,PF,77.79,clear sky,-16.48,-151.75,Bora-Bora Pearl Beach Resort & Spa
cabo san lucas,MX,84.2,scattered clouds,22.89,-109.91,Hotel Tesoro Los Cabos
ballingry,GB,63.0,overcast clouds,56.16,-3.33,Loch Leven Lodges
cape town,ZA,63.0,clear sky,-33.93,18.42,Southern Sun Waterfront Cape Town
halifax,CA,72.0,scattered clouds,44.65,-63.57,Hotel Halifax
kodiak,US,53.6,clear sky,57.79,-152.41,Best Western Kodiak Inn and Convention Center
victoria,HK,84.99,moderate rain,22.29,114.16,Mini Hotel Central
tingo maria,PE,80.6,haze,-9.29,-76.01,Hospedaje Paraíso
hobyo,SO,76.32,few clouds,5.35,48.53,Osmani Hotel
berezovka,BY,50.02,light rain,53.72,25.5,Nad Nemanom Usad'ba
ancud,CL,55.0,overcast clouds,-41.87,-73.82,Hotel Arena Gruesa
rikitea,PF,73.18,clear sky,-23.12,-134.97,Pension Maro'i
xunchang,CN,71.38,light rain,28.45,104.72,Jiabin Inn
rikitea,PF,73.18,clear sky,-23.12,-134.97,Pension Maro'i
ancud,CL,55.0,overcast clouds,-41.87,-73.82,Hotel Arena Gruesa
khani,GE,73.4,scattered clouds,41.96,42.96,კურორტი ზეკარი/Resort Zekari
codrington,AU,66.34,overcast clouds,-38.27,141.97,Codrington Gardens Bed And Breakfast
tessalit,ML,98.19,clear sky,20.2,1.01,
aksha,RU,50.43,clear sky,50.28,113.29,
souillac,MU,71.6,shower rain,-20.52,57.52,Bils' Villa
deqing,CN,75.0,light rain,30.54,119.96,Narada Boutique Hotel Huzhou Deqing
pisco,PE,64.99,scattered clouds,-13.7,-76.22,Hostal San Isidro Oficial
port elizabeth,ZA,59.0,few clouds,-33.92,25.57,39 On Nile Guest House
trinidad,BO,84.2,overcast clouds,-14.83,-64.9,Hotel Piesta
carnarvon,AU,64.4,broken clouds,-24.87,113.63,Hospitality Carnarvon
diffa,NE,87.75,scattered clouds,13.32,12.61,ProDAF/Diffa
middleton,GB,60.01,overcast clouds,53.55,-2.2,Mercure Manchester Norton Grange Hotel & Spa
saldanha,ZA,62.6,clear sky,-33.01,17.94,Blue Bay Lodge
birao,CF,72.57,overcast clouds,10.28,22.79,
atuona,PF,78.87,few clouds,-9.8,-139.03,Villa Enata
puerto ayora,EC,77.0,scattered clouds,-0.74,-90.35,Finch Bay Galapagos Hotel
sakakah,SA,96.8,clear sky,29.97,40.21,Fakhamat Al Orjoana Apartment
teguise,ES,84.2,clear sky,29.06,-13.56,B&B La Casona de Nazaret
carnarvon,AU,64.4,broken clouds,-24.87,113.63,Hospitality Carnarvon
hovd,MN,52.56,overcast clouds,48.01,91.64,Hotel Khovd
martapura,ID,78.8,overcast clouds,-3.42,114.85,Montana Hotel Syariah
jamestown,US,66.99,few clouds,42.1,-79.24,Hampton Inn & Suites Jamestown
mahajanga,MG,75.2,clear sky,-15.72,46.32,Restaurant Greedy Coco Lodge Majunga
jamestown,US,66.99,few clouds,42.1,-79.24,Hampton Inn & Suites Jamestown
esfarayen,IR,71.6,clear sky,37.08,57.51,Mellat
vaini,TO,68.0,broken clouds,-21.2,-175.2,Keleti Beach Resort
atuona,PF,78.87,few clouds,-9.8,-139.03,Villa Enata
georgetown,MY,80.6,few clouds,5.41,100.34,Cititel Penang
cape town,ZA,63.0,clear sky,-33.93,18.42,Southern Sun Waterfront Cape Town
deniliquin,AU,59.0,overcast clouds,-35.53,144.97,Riviana Motel
cape town,ZA,63.0,clear sky,-33.93,18.42,Southern Sun Waterfront Cape Town
hermanus,ZA,59.63,clear sky,-34.42,19.23,Misty Waves Boutique Hotel
shizunai,JP,72.61,clear sky,42.33,142.37,Shizunai Eclipse Hotel
xai-xai,MZ,65.97,clear sky,-25.05,33.64,Platinum Hotel
bari sadri,IN,76.6,clear sky,24.42,74.47,Roop Lal House
hobart,AU,60.01,overcast clouds,-42.88,147.33,St Ives Hobart Accommodation Tasmania
bethel,US,78.01,clear sky,41.37,-73.41,Courtyard by Marriott Danbury
east london,ZA,59.0,few clouds,-33.02,27.91,Tu Casa
soller,ES,64.99,clear sky,39.77,2.72,Hotel Marina & Wellness Spa
gat,IL,84.0,clear sky,31.61,34.76,OlusHome
joshimath,IN,62.17,clear sky,30.57,79.57,Shivalik Camps & Resort
jamestown,US,66.99,few clouds,42.1,-79.24,Hampton Inn & Suites Jamestown
cascais,PT,84.99,scattered clouds,38.7,-9.42,Hotel Vila Galé Cascais
rikitea,PF,73.18,clear sky,-23.12,-134.97,Pension Maro'i
vaini,TO,68.0,broken clouds,-21.2,-175.2,Keleti Beach Resort
atuona,PF,78.87,few clouds,-9.8,-139.03,Villa Enata
zharkent,KZ,56.71,clear sky,44.16,80.0,гостиница Satti
springfield,US,90.0,clear sky,37.22,-93.3,Best Western Route 66 Rail Haven
avarua,CK,73.4,few clouds,-21.21,-159.78,Paradise Inn
kinablangan,PH,79.97,overcast clouds,7.69,126.55,Mainit Balete Hot Spring
vaini,TO,68.0,broken clouds,-21.2,-175.2,Keleti Beach Resort
buala,SB,79.75,clear sky,-8.14,159.59,Maringe Lagoon Lodge
shelburne,CA,64.99,overcast clouds,44.08,-80.2,The Retreat at the Farm
rikitea,PF,73.18,clear sky,-23.12,-134.97,Pension Maro'i
shaowu,CN,70.05,light rain,27.34,117.48,Yijie Express Hotel
lagoa,PT,70.07,scattered clouds,39.05,-27.98,Casa Das Faias
champasak,LA,74.46,overcast clouds,14.75,106.0,Kiat Ngong Wetland BUNGALOW
rikitea,PF,73.18,clear sky,-23.12,-134.97,Pension Maro'i
rikitea,PF,73.18,clear sky,-23.12,-134.97,Pension Maro'i
airai,TL,56.57,broken clouds,-8.93,125.41,Juvinal Martin
gorontalo,ID,74.62,overcast clouds,0.54,123.06,Maqna Hotel by Prasanthi
kruisfontein,ZA,61.0,clear sky,-34.0,24.73,Oyster Bay House Rental
mizdah,LY,79.68,few clouds,31.45,12.98,محمدالمبروك الاريقط
thongwa,MM,75.2,broken clouds,16.76,96.53,Mhaw Wun Marlar Park
atuona,PF,78.87,few clouds,-9.8,-139.03,Villa Enata
albany,US,78.01,scattered clouds,42.6,-73.97,
manitowoc,US,64.0,overcast clouds,44.07,-87.8,Aloft Apts. LLC
cape town,ZA,63.0,clear sky,-33.93,18.42,Southern Sun Waterfront Cape Town
albany,US,78.01,scattered clouds,42.6,-73.97,
rikitea,PF,73.18,clear sky,-23.12,-134.97,Pension Maro'i
vierzon,FR,69.8,broken clouds,47.21,2.06,Arche Hôtel Vierzon
vao,NC,69.26,overcast clouds,-22.67,167.48,Hotel Kou-Bugny
castro,BR,80.65,few clouds,-24.79,-50.01,CHACARA BAILLY
guanare,VE,85.6,overcast clouds,9.04,-69.74,Nuevo Hotel Coromoto
tunggol,PH,81.16,scattered clouds,5.84,121.15,
arraial do cabo,BR,80.6,few clouds,-22.97,-42.03,Pousada Porto Praia
alta floresta,BR,98.6,smoke,-9.88,-56.09,Floresta Amazonica Hotel
georgetown,MY,80.6,few clouds,5.41,100.34,Cititel Penang
gamba,GA,74.73,broken clouds,-2.65,10.0,
hilo,US,80.6,few clouds,19.73,-155.09,Hilo Hawaiian Hotel
san cristobal,VE,89.6,scattered clouds,7.77,-72.22,Pirineos
norman wells,CA,51.8,overcast clouds,65.28,-126.83,Heritage Hotel
port elizabeth,ZA,59.0,few clouds,-33.92,25.57,39 On Nile Guest House
faanui,PF,77.79,clear sky,-16.48,-151.75,Bora-Bora Pearl Beach Resort & Spa
port lincoln,AU,58.73,overcast clouds,-34.73,135.87,Port Lincoln Hotel
rikitea,PF,73.18,clear sky,-23.12,-134.97,Pension Maro'i
georgetown,MY,80.6,few clouds,5.41,100.34,Cititel Penang
jumla,NP,58.24,clear sky,29.27,82.18,Hotel Sundar Rara Karnali
saint-philippe,RE,69.8,mist,-21.36,55.77,"Chambres d'hôte ""La Trinité"""
necochea,AR,61.0,clear sky,-38.55,-58.74,dyd -mar Hotel
yellowknife,CA,51.01,broken clouds,62.46,-114.35,The Explorer Hotel
panorama,GR,81.0,clear sky,40.59,23.03,Panorama Hotel
lebu,CL,53.6,broken clouds,-37.62,-73.65,Hostal Las Lilas
port alfred,ZA,62.04,clear sky,-33.59,26.89,The Halyards Hotel
rikitea,PF,73.18,clear sky,-23.12,-134.97,Pension Maro'i
baruun-urt,MN,51.39,clear sky,46.68,113.28,Ахмадын амралт сувилал
gerede,TR,55.81,clear sky,40.8,32.2,Hotel Konuk
lucapa,AO,76.73,clear sky,-8.42,20.74,Residência Ulisses Dos Santos
nikolskoye,RU,55.4,broken clouds,59.7,30.79,Tourist House - Sablino
hilo,US,80.6,few clouds,19.73,-155.09,Hilo Hawaiian Hotel
victoria,HK,84.99,moderate rain,22.29,114.16,Mini Hotel Central
bredasdorp,ZA,60.8,clear sky,-34.53,20.04,Bredasdorp Country Manor
tyler,US,89.6,clear sky,32.35,-95.3,Quality Inn Tyler - Lindale
horizontina,BR,62.01,moderate rain,-27.63,-54.31,Hotel Avenida
paita,PE,75.2,broken clouds,-5.09,-81.11,Hotel Náutico de Paita
benguela,AO,72.7,clear sky,-12.58,13.41,Hotel Praia Morena
lebu,CL,53.6,broken clouds,-37.62,-73.65,Hostal Las Lilas
biu,NG,70.3,light rain,10.61,12.19,EYN LCC MANDARAGIRAU
sur,OM,85.82,clear sky,22.57,59.53,Sur Plaza Hotel
hermanus,ZA,59.63,clear sky,-34.42,19.23,Misty Waves Boutique Hotel
sakakah,SA,96.8,clear sky,29.97,40.21,Fakhamat Al Orjoana Apartment
port elizabeth,ZA,59.0,few clouds,-33.92,25.57,39 On Nile Guest House
saryozek,KZ,51.58,scattered clouds,44.36,77.98,Gostinitsa
puerto ayora,EC,77.0,scattered clouds,-0.74,-90.35,Finch Bay Galapagos Hotel
roald,NO,57.2,shower rain,62.58,6.13,Flem Cabins
esik,KZ,51.8,clear sky,43.36,77.45,"Gostevoy Dom ""Asyl Tau"""
jamestown,US,66.99,few clouds,42.1,-79.24,Hampton Inn & Suites Jamestown
kargil,IN,53.08,clear sky,34.57,76.1,Caravan Sarai
severo-kurilsk,RU,52.77,scattered clouds,50.68,156.12,Kak Doma
terenos,BR,96.8,broken clouds,-20.44,-54.86,QUINTAS IN CASA
hilo,US,80.6,few clouds,19.73,-155.09,Hilo Hawaiian Hotel
adeje,ES,86.0,few clouds,28.12,-16.73,Gran Tacande Wellness & Relax Costa Adeje
hobart,AU,60.01,overcast clouds,-42.88,147.33,St Ives Hobart Accommodation Tasmania
sistranda,NO,51.8,light rain,63.73,8.83,Hotell Frøya
albany,US,78.01,scattered clouds,42.6,-73.97,
hermanus,ZA,59.63,clear sky,-34.42,19.23,Misty Waves Boutique Hotel
castro,BR,80.65,few clouds,-24.79,-50.01,CHACARA BAILLY
san quintin,MX,81.97,clear sky,30.48,-115.95,Old Mill Hotel
souillac,MU,71.6,shower rain,-20.52,57.52,Bils' Villa
torbay,CA,66.99,few clouds,47.67,-52.73,Gallows Cove
foumban,CM,65.5,moderate rain,5.73,10.9,Hotel Pekassa De Karche
hobart,AU,60.01,overcast clouds,-42.88,147.33,St Ives Hobart Accommodation Tasmania
hermanus,ZA,59.63,clear sky,-34.42,19.23,Misty Waves Boutique Hotel
mayor pablo lagerenza,PY,83.88,broken clouds,-19.93,-60.77,
seduva,LT,53.6,few clouds,55.77,23.77,
matara,LK,79.03,overcast clouds,5.95,80.54,Amaloh Boutique Resort
castro,BR,80.65,few clouds,-24.79,-50.01,CHACARA BAILLY
poum,NC,72.03,overcast clouds,-20.23,164.02,Gîte kajeon
sobolevo,RU,55.47,very heavy rain,54.43,31.9,
carnarvon,AU,64.4,broken clouds,-24.87,113.63,Hospitality Carnarvon
portland,US,78.01,scattered clouds,45.52,-122.68,Portland Marriott City Center
ginda,IN,62.01,clear sky,30.69,78.49,Bal uma sankar hotel and restaurant
amboasary,MG,69.8,scattered clouds,-25.03,46.38,DISCOVERY AMBOASARY
cabo san lucas,MX,84.2,scattered clouds,22.89,-109.91,Hotel Tesoro Los Cabos
nioro,GM,77.97,overcast clouds,13.35,-15.75,
santa rosa,PH,80.6,broken clouds,14.31,121.11,Erlyn’s Sta Rosa City Home
fortuna,US,86.0,clear sky,40.6,-124.16,Super 8 by Wyndham Fortuna
caravelas,BR,76.28,clear sky,-17.71,-39.25,Pousada dos Navegantes
challans,FR,68.0,scattered clouds,46.84,-1.87,Citotel Le Challans
muroto,JP,80.58,clear sky,33.28,134.15,Oota Ryokan
jamestown,US,66.99,few clouds,42.1,-79.24,Hampton Inn & Suites Jamestown
masuda,JP,78.8,few clouds,34.67,131.85,Masuda Green Hotel Morris
hermanus,ZA,59.63,clear sky,-34.42,19.23,Misty Waves Boutique Hotel
accra,GH,77.0,scattered clouds,5.56,-0.2,Accra City Hotel
kapaa,US,82.4,scattered clouds,22.08,-159.32,Sheraton Kauai Resort at Coconut Beach
college,US,53.6,broken clouds,64.86,-147.8,Pike's Waterfront Lodge
pridonskoy,RU,59.0,scattered clouds,51.68,39.07,Apartment na 9-go Yanvarya
atuona,PF,78.87,few clouds,-9.8,-139.03,Villa Enata
puerto el triunfo,SV,87.8,scattered clouds,13.28,-88.55,Hotel Jardin
atuona,PF,78.87,few clouds,-9.8,-139.03,Villa Enata
butaritari,KI,82.89,scattered clouds,3.07,172.79,Isles Sunset Lodge
saint-georges,GD,86.0,light intensity shower rain,12.06,-61.75,Siesta Hotel
rikitea,PF,73.18,clear sky,-23.12,-134.97,Pension Maro'i
itarema,BR,82.94,clear sky,-2.92,-39.92,Windvillage
klaksvik,FO,51.8,drizzle,62.23,-6.59,Airbnb rooms
saint-philippe,RE,69.8,mist,-21.36,55.77,"Chambres d'hôte ""La Trinité"""
pisco,PE,64.99,scattered clouds,-13.7,-76.22,Hostal San Isidro Oficial
caravelas,BR,76.28,clear sky,-17.71,-39.25,Pousada dos Navegantes
jatiroto,ID,71.47,clear sky,-7.88,111.12,Mushola Al Huda
saint-joseph,RE,69.8,mist,-21.37,55.62,"""Plantation Bed and Breakfast"
pisco,PE,64.99,scattered clouds,-13.7,-76.22,Hostal San Isidro Oficial
albany,US,78.01,scattered clouds,42.6,-73.97,
eldorado,BR,89.33,overcast clouds,-23.79,-54.28,Villa Verde Hotel
hermanus,ZA,59.63,clear sky,-34.42,19.23,Misty Waves Boutique Hotel
matara,LK,79.03,overcast clouds,5.95,80.54,Amaloh Boutique Resort
airai,TL,56.57,broken clouds,-8.93,125.41,Juvinal Martin
isangel,VU,69.8,overcast clouds,-19.55,169.27,Volcano Sea View Tree House
bredasdorp,ZA,60.8,clear sky,-34.53,20.04,Bredasdorp Country Manor
rybnaya sloboda,RU,59.0,few clouds,55.46,50.14,Гостиница Аяз
kangaba,ML,75.58,light rain,11.93,-8.42,Hôtel Mandé
guerrero negro,MX,88.11,clear sky,27.98,-114.06,"Casa Laguna, Bed & Breakfast"
bubaque,GW,80.38,scattered clouds,11.28,-15.83,Casa Dora - Mango Lodge
rikitea,PF,73.18,clear sky,-23.12,-134.97,Pension Maro'i
kloulklubed,PW,85.41,overcast clouds,7.04,134.26,Storyboard Beach Resort
jamestown,US,66.99,few clouds,42.1,-79.24,Hampton Inn & Suites Jamestown
puerto ayora,EC,77.0,scattered clouds,-0.74,-90.35,Finch Bay Galapagos Hotel
butaritari,KI,82.89,scattered clouds,3.07,172.79,Isles Sunset Lodge
kendari,ID,74.53,overcast clouds,-3.94,122.5,Hotel Wixel
atuona,PF,78.87,few clouds,-9.8,-139.03,Villa Enata
lasa,IT,53.6,scattered clouds,46.62,10.7,Pension Feldgärtenhof
guerrero negro,MX,88.11,clear sky,27.98,-114.06,"Casa Laguna, Bed & Breakfast"
cape town,ZA,63.0,clear sky,-33.93,18.42,Southern Sun Waterfront Cape Town
buluang,PH,78.44,overcast clouds,13.31,123.34,Enon Beach Resort
nikolskoye,RU,55.4,broken clouds,59.7,30.79,Tourist House - Sablino
georgetown,MY,80.6,few clouds,5.41,100.34,Cititel Penang
vilcun,CL,60.01,scattered clouds,-38.65,-72.23,"Rayen-Co, Rural Tourism"
hithadhoo,MV,82.9,overcast clouds,-0.6,73.08,Scoop Guest House
rikitea,PF,73.18,clear sky,-23.12,-134.97,Pension Maro'i
port alfred,ZA,62.04,clear sky,-33.59,26.89,The Halyards Hotel
nikolskoye,RU,55.4,broken clouds,59.7,30.79,Tourist House - Sablino
kapaa,US,82.4,scattered clouds,22.08,-159.32,Sheraton Kauai Resort at Coconut Beach
puerto ayora,EC,77.0,scattered clouds,-0.74,-90.35,Finch Bay Galapagos Hotel
sao filipe,CV,79.5,light rain,14.9,-24.5,Tortuga B&B
new norfolk,AU,60.01,overcast clouds,-42.78,147.06,The Shingles Riverside Cottages
thunder bay,CA,55.99,broken clouds,48.4,-89.32,Victoria Inn Hotel and Convention Centre
miri,MY,78.8,scattered clouds,4.41,114.01,"Mega Hotel, Miri"
atuona,PF,78.87,few clouds,-9.8,-139.03,Villa Enata
rikitea,PF,73.18,clear sky,-23.12,-134.97,Pension Maro'i
albany,US,78.01,scattered clouds,42.6,-73.97,
new norfolk,AU,60.01,overcast clouds,-42.78,147.06,The Shingles Riverside Cottages
atuona,PF,78.87,few clouds,-9.8,-139.03,Villa Enata
jizan,SA,91.4,clear sky,17.33,42.67,شهدان. ابوالحجر
eten,PE,68.0,few clouds,-6.91,-79.86,Hospedaje Sol Radiante
mar del plata,AR,55.4,clear sky,-38.0,-57.56,Gran Hotel Mar del Plata habitaciones
nampula,MZ,66.58,clear sky,-15.12,39.27,Tacab Residencial
cape town,ZA,63.0,clear sky,-33.93,18.42,Southern Sun Waterfront Cape Town
tono,JP,72.66,clear sky,39.32,141.53,Aeria Tono
poum,NC,72.03,overcast clouds,-20.23,164.02,Gîte kajeon
hithadhoo,MV,82.9,overcast clouds,-0.6,73.08,Scoop Guest House
cape town,ZA,63.0,clear sky,-33.93,18.42,Southern Sun Waterfront Cape Town
puerto ayora,EC,77.0,scattered clouds,-0.74,-90.35,Finch Bay Galapagos Hotel
nikolskoye,RU,55.4,broken clouds,59.7,30.79,Tourist House - Sablino
kapaa,US,82.4,scattered clouds,22.08,-159.32,Sheraton Kauai Resort at Coconut Beach
victoria,HK,84.99,moderate rain,22.29,114.16,Mini Hotel Central
lompoc,US,78.8,clear sky,34.64,-120.46,Holiday Inn Express Lompoc
nemuro,JP,66.85,overcast clouds,43.32,145.57,Hotel Nemuro Kaiyoutei
vaini,TO,68.0,broken clouds,-21.2,-175.2,Keleti Beach Resort
jamestown,US,66.99,few clouds,42.1,-79.24,Hampton Inn & Suites Jamestown
butaritari,KI,82.89,scattered clouds,3.07,172.79,Isles Sunset Lodge
karaton,ID,84.0,scattered clouds,-6.34,106.1,Parkir Mobil Wisata CAS Water Park
atuona,PF,78.87,few clouds,-9.8,-139.03,Villa Enata
pouembout,NC,66.34,overcast clouds,-21.13,164.9,Camping de Tipenga
male,MV,84.2,broken clouds,4.17,73.51,Hotel Octave Maldives
yellowknife,CA,51.01,broken clouds,62.46,-114.35,The Explorer Hotel
kabare,CD,64.51,light rain,-2.47,28.82,Hôtel Panorama
albany,US,78.01,scattered clouds,42.6,-73.97,
kahului,US,82.4,few clouds,20.89,-156.47,Maui Seaside Hotel
shenjiamen,CN,77.76,light rain,29.96,122.3,Jinjiang Inn Zhoushan Putuo Shenjiamen
bintulu,MY,77.0,light rain,3.17,113.03,900 Boutique INN
bekhtery,UA,71.6,clear sky,46.25,32.29,
saint anthony,US,57.2,scattered clouds,45.02,-93.22,Holiday Inn Express Roseville-St. Paul
arraial do cabo,BR,80.6,few clouds,-22.97,-42.03,Pousada Porto Praia
viedma,AR,64.99,clear sky,-40.81,-63.0,Hotel Cristal
ferkessedougou,CI,75.51,moderate rain,9.6,-5.2,Hotel Chateau
cape town,ZA,63.0,clear sky,-33.93,18.42,Southern Sun Waterfront Cape Town
vaini,TO,68.0,broken clouds,-21.2,-175.2,Keleti Beach Resort
praia,CV,82.4,drizzle rain,14.92,-23.51,LT Aparthotel
chatham,GB,64.99,overcast clouds,51.38,0.53,King Charles Hotel
souillac,MU,71.6,shower rain,-20.52,57.52,Bils' Villa
puerto ayora,EC,77.0,scattered clouds,-0.74,-90.35,Finch Bay Galapagos Hotel
mindelo,CV,86.0,broken clouds,16.89,-24.98,Hotel Gaudi
emerald,AU,59.0,clear sky,-23.53,148.17,The Irish Village
torbay,CA,66.99,few clouds,47.67,-52.73,Gallows Cove
coquimbo,CL,59.0,clear sky,-29.95,-71.34,Hotel San Juan
albany,US,78.01,scattered clouds,42.6,-73.97,
kamaishi,JP,76.51,clear sky,39.27,141.88,Hotel Route Inn Kamaishi
sao jose da coroa grande,BR,77.72,clear sky,-8.9,-35.15,Crôa Mares Hotel
avera,US,86.0,scattered clouds,33.19,-82.53,
nikel,RU,51.8,broken clouds,69.41,30.22,Severnoe Siyanie
akyab,MM,82.69,overcast clouds,20.15,92.9,Hotel Memory
mount gambier,AU,62.83,overcast clouds,-37.83,140.77,Commodore on the Park
caravelas,BR,76.28,clear sky,-17.71,-39.25,Pousada dos Navegantes
tondano,ID,75.2,scattered clouds,1.3,124.91,Villa Bella
katsuura,JP,82.99,scattered clouds,35.13,140.3,Katsuura Hotel Mikazuki
gopalur,IN,79.05,few clouds,16.62,77.8,Dhaba- Motel
pacifica,US,84.2,few clouds,37.61,-122.49,"Pacifica Lighthouse, Trademark Collection by Wyndham"
jacareacanga,BR,96.8,broken clouds,-6.22,-57.75,Casa do Ian😎
castro,BR,80.65,few clouds,-24.79,-50.01,CHACARA BAILLY
rikitea,PF,73.18,clear sky,-23.12,-134.97,Pension Maro'i
arlit,NE,86.56,light rain,18.74,7.39,Hôtel Telwa Bungalow
jumla,NP,58.24,clear sky,29.27,82.18,Hotel Sundar Rara Karnali
dubrovka,RU,61.59,light rain,53.69,33.51,
hasaki,JP,80.6,few clouds,35.73,140.83,Inubosaki Kanko Hotel
yatou,CN,67.08,clear sky,37.15,122.38,GreenTree Hotel Rongcheng Bus Station
cayenne,GF,89.6,light rain,4.93,-52.33,Hôtel Le Dronmi
ribeira grande,PT,71.6,scattered clouds,38.52,-28.7,Quinta da Meia Eira
morant bay,JM,87.8,few clouds,17.88,-76.41,Whispering Bamboo Cove Resort
atuona,PF,78.87,few clouds,-9.8,-139.03,Villa Enata
albany,US,78.01,scattered clouds,42.6,-73.97,
avera,US,86.0,scattered clouds,33.19,-82.53,
bodden town,KY,86.0,few clouds,19.28,-81.25,Will T Place
chuy,UY,57.87,scattered clouds,-33.7,-53.46,Nuevo Hotel Plaza
laiya,PH,78.01,overcast clouds,13.68,121.39,Blue Coral Beach Resort
vaini,TO,68.0,broken clouds,-21.2,-175.2,Keleti Beach Resort
rikitea,PF,73.18,clear sky,-23.12,-134.97,Pension Maro'i
kruisfontein,ZA,61.0,clear sky,-34.0,24.73,Oyster Bay House Rental
broken hill,AU,60.8,clear sky,-31.95,141.43,Daydream Motel & Cottages
atuona,PF,78.87,few clouds,-9.8,-139.03,Villa Enata
jamestown,US,66.99,few clouds,42.1,-79.24,Hampton Inn & Suites Jamestown
rikitea,PF,73.18,clear sky,-23.12,-134.97,Pension Maro'i
buala,SB,79.75,clear sky,-8.14,159.59,Maringe Lagoon Lodge
jamestown,US,66.99,few clouds,42.1,-79.24,Hampton Inn & Suites Jamestown
rikitea,PF,73.18,clear sky,-23.12,-134.97,Pension Maro'i
salalah,OM,80.6,broken clouds,17.02,54.09,HAMDAN PLAZA HOTEL
vaini,TO,68.0,broken clouds,-21.2,-175.2,Keleti Beach Resort
bathsheba,BB,87.8,scattered clouds,13.22,-59.52,Atlantis Hotel
thunder bay,CA,55.99,broken clouds,48.4,-89.32,Victoria Inn Hotel and Convention Centre
avarua,CK,73.4,few clouds,-21.21,-159.78,Paradise Inn
avarua,CK,73.4,few clouds,-21.21,-159.78,Paradise Inn
baikunthpur,IN,77.0,overcast clouds,23.25,82.55,New Shree Annpurna Lodge
avarua,CK,73.4,few clouds,-21.21,-159.78,Paradise Inn
mao,ES,66.2,few clouds,39.89,4.27,ARTIEM Capri
bredasdorp,ZA,60.8,clear sky,-34.53,20.04,Bredasdorp Country Manor
chuy,UY,57.87,scattered clouds,-33.7,-53.46,Nuevo Hotel Plaza
coquimbo,CL,59.0,clear sky,-29.95,-71.34,Hotel San Juan
butaritari,KI,82.89,scattered clouds,3.07,172.79,Isles Sunset Lodge
laranjal paulista,BR,89.26,overcast clouds,-23.05,-47.84,Vale Verde Palace Hotel
vila velha,BR,81.0,clear sky,-20.33,-40.29,Hotel Vitória Palace
vaini,TO,68.0,broken clouds,-21.2,-175.2,Keleti Beach Resort
hermanus,ZA,59.63,clear sky,-34.42,19.23,Misty Waves Boutique Hotel
lerwick,GB,53.6,shower rain,60.15,-1.15,The Lerwick Hotel
albany,US,78.01,scattered clouds,42.6,-73.97,
abu samrah,SY,81.59,clear sky,35.3,37.18,
aku,NG,73.9,overcast clouds,6.71,7.32,Diewa Hotel And Resort
georgetown,MY,80.6,few clouds,5.41,100.34,Cititel Penang
bulgan,MN,51.21,few clouds,48.81,103.53,Bulgan Hotel
hobart,AU,60.01,overcast clouds,-42.88,147.33,St Ives Hobart Accommodation Tasmania
severo-kurilsk,RU,52.77,scattered clouds,50.68,156.12,Kak Doma
severo-kurilsk,RU,52.77,scattered clouds,50.68,156.12,Kak Doma
tateyama,JP,82.99,clear sky,34.98,139.87,Tateyama Seaside Hotel
dmitriyevka,RU,51.8,clear sky,54.75,55.33,
chicomuselo,MX,82.2,overcast clouds,15.77,-92.27,Hotel San Carlos
port alfred,ZA,62.04,clear sky,-33.59,26.89,The Halyards Hotel
rikitea,PF,73.18,clear sky,-23.12,-134.97,Pension Maro'i
bonavista,CA,60.24,clear sky,48.65,-53.11,Abbott's Bed & Breakfast
avarua,CK,73.4,few clouds,-21.21,-159.78,Paradise Inn
georgetown,MY,80.6,few clouds,5.41,100.34,Cititel Penang
constitucion,CL,56.64,broken clouds,-35.33,-72.42,Hotel Boutique Las Azucenas
dapdap,PH,82.26,few clouds,12.06,125.49,Oasis Lodge
chimore,BO,87.08,light rain,-16.98,-65.13,Bichito
tam ky,VN,78.8,scattered clouds,15.57,108.48,Tam Ky Hotels - Tram Oanh Hotel
rikitea,PF,73.18,clear sky,-23.12,-134.97,Pension Maro'i
chuy,UY,57.87,scattered clouds,-33.7,-53.46,Nuevo Hotel Plaza
rikitea,PF,73.18,clear sky,-23.12,-134.97,Pension Maro'i
brae,GB,53.6,shower rain,60.4,-1.35,Busta House Hotel
jamestown,US,66.99,few clouds,42.1,-79.24,Hampton Inn & Suites Jamestown
bredasdorp,ZA,60.8,clear sky,-34.53,20.04,Bredasdorp Country Manor
balkhash,KZ,59.36,clear sky,46.84,74.98,Family
farafangana,MG,67.5,light rain,-22.82,47.83,Austral Hotel
espanola,US,82.99,clear sky,35.99,-106.08,Santa Claran Hotel
margate,GB,64.99,overcast clouds,51.38,1.39,Premier Inn Margate hotel
kavieng,PG,82.58,clear sky,-2.57,150.8,Nusa Island Retreat
barstow,US,96.8,haze,34.9,-117.02,"Motel 6 Barstow, CA"
xichang,CN,66.33,overcast clouds,27.9,102.26,Xichang ibis Hotel
salisbury,GB,63.0,overcast clouds,51.07,-1.8,Mercure Salisbury White Hart Hotel
tukrah,LY,76.5,clear sky,32.53,20.58,استراحة لاقروتا
caucaia,BR,84.2,clear sky,-3.74,-38.65,M.O.S. Logística - Filial Fortaleza
san-pedro,CI,76.3,overcast clouds,4.75,-6.64,Hotel Maria
bambous virieux,MU,73.0,shower rain,-20.34,57.76,Casa Tia Villa
lucea,JM,84.2,broken clouds,18.45,-78.17,Grand Palladium Jamaica Resort & Spa
cabo san lucas,MX,84.2,scattered clouds,22.89,-109.91,Hotel Tesoro Los Cabos
butaritari,KI,82.89,scattered clouds,3.07,172.79,Isles Sunset Lodge
avera,US,86.0,scattered clouds,33.19,-82.53,
ribeira grande,PT,71.6,scattered clouds,38.52,-28.7,Quinta da Meia Eira
sunndalsora,NO,51.8,broken clouds,62.68,8.55,Trædal Hotel
mahebourg,MU,71.6,shower rain,-20.41,57.7,Shandrani Beachcomber Resort & Spa
hermanus,ZA,59.63,clear sky,-34.42,19.23,Misty Waves Boutique Hotel
hermanus,ZA,59.63,clear sky,-34.42,19.23,Misty Waves Boutique Hotel
buala,SB,79.75,clear sky,-8.14,159.59,Maringe Lagoon Lodge
hermanus,ZA,59.63,clear sky,-34.42,19.23,Misty Waves Boutique Hotel
hobart,AU,60.01,overcast clouds,-42.88,147.33,St Ives Hobart Accommodation Tasmania
puerto ayora,EC,77.0,scattered clouds,-0.74,-90.35,Finch Bay Galapagos Hotel
vilhena,BR,95.0,smoke,-12.74,-60.15,Hotel Mirage
yen bai,VN,77.49,overcast clouds,21.7,104.87,AK MOTEL
labuhan,ID,77.11,clear sky,-6.88,112.21,bador sepret
victoria,HK,84.99,moderate rain,22.29,114.16,Mini Hotel Central
lompoc,US,78.8,clear sky,34.64,-120.46,Holiday Inn Express Lompoc
rikitea,PF,73.18,clear sky,-23.12,-134.97,Pension Maro'i
kununurra,AU,69.8,broken clouds,-15.77,128.73,Hotel Kununurra
bolgatanga,GH,75.9,moderate rain,10.79,-0.85,Mama's Place
hobart,AU,60.01,overcast clouds,-42.88,147.33,St Ives Hobart Accommodation Tasmania
severo-kurilsk,RU,52.77,scattered clouds,50.68,156.12,Kak Doma
xai-xai,MZ,65.97,clear sky,-25.05,33.64,Platinum Hotel
gazli,UZ,63.25,clear sky,40.13,63.45,
touros,BR,84.2,few clouds,-5.2,-35.46,INN NEW HORIZON
chuy,UY,57.87,scattered clouds,-33.7,-53.46,Nuevo Hotel Plaza
votkinsk,RU,57.99,scattered clouds,57.05,53.99,Tsentralniy Hotel
mountain home,US,84.2,clear sky,43.13,-115.69,Mountain Home Inn
ketchikan,US,57.2,few clouds,55.34,-131.65,Snows Cove Lodge
hobart,AU,60.01,overcast clouds,-42.88,147.33,St Ives Hobart Accommodation Tasmania
gambela,ET,70.2,light rain,8.25,34.58,Solomon Debebe Hotel
nouakchott,MR,89.6,broken clouds,18.09,-15.98,Hôtel Iman
hermanus,ZA,59.63,clear sky,-34.42,19.23,Misty Waves Boutique Hotel
fortuna,US,86.0,clear sky,40.6,-124.16,Super 8 by Wyndham Fortuna
yellowknife,CA,51.01,broken clouds,62.46,-114.35,The Explorer Hotel
kapaa,US,82.4,scattered clouds,22.08,-159.32,Sheraton Kauai Resort at Coconut Beach
aksaray,TR,71.6,clear sky,38.37,34.03,Kuzucular Park Hotel
atuona,PF,78.87,few clouds,-9.8,-139.03,Villa Enata
lebu,CL,53.6,broken clouds,-37.62,-73.65,Hostal Las Lilas
victoria,HK,84.99,moderate rain,22.29,114.16,Mini Hotel Central
varhaug,NO,55.0,overcast clouds,58.61,5.65,Dancenter Gurihuset
lompoc,US,78.8,clear sky,34.64,-120.46,Holiday Inn Express Lompoc
albany,US,78.01,scattered clouds,42.6,-73.97,
cidreira,BR,57.69,moderate rain,-30.18,-50.21,Hotel Castelo
ayame,CI,74.75,clear sky,5.61,-3.16,Hotel Bossan
rikitea,PF,73.18,clear sky,-23.12,-134.97,Pension Maro'i
avarua,CK,73.4,few clouds,-21.21,-159.78,Paradise Inn
san vicente,AR,66.0,overcast clouds,-26.62,-54.13,Complejo Turístico Farelluk
albany,US,78.01,scattered clouds,42.6,-73.97,
norman wells,CA,51.8,overcast clouds,65.28,-126.83,Heritage Hotel
rikitea,PF,73.18,clear sky,-23.12,-134.97,Pension Maro'i
caravelas,BR,76.28,clear sky,-17.71,-39.25,Pousada dos Navegantes
albany,US,78.01,scattered clouds,42.6,-73.97,
chuy,UY,57.87,scattered clouds,-33.7,-53.46,Nuevo Hotel Plaza
jamestown,US,66.99,few clouds,42.1,-79.24,Hampton Inn & Suites Jamestown
nicoya,CR,84.2,broken clouds,10.15,-85.45,Guayacan Real
bull savanna,JM,83.89,overcast clouds,17.89,-77.59,Big Red's
hermanus,ZA,59.63,clear sky,-34.42,19.23,Misty Waves Boutique Hotel
itaituba,BR,95.0,few clouds,-4.28,-55.98,Hotel Campos
atuona,PF,78.87,few clouds,-9.8,-139.03,Villa Enata
kavieng,PG,82.58,clear sky,-2.57,150.8,Nusa Island Retreat
port alfred,ZA,62.04,clear sky,-33.59,26.89,The Halyards Hotel
kroya,ID,76.51,broken clouds,-7.63,109.25,RUSTANTO Fam
kodiak,US,53.6,clear sky,57.79,-152.41,Best Western Kodiak Inn and Convention Center
hithadhoo,MV,82.9,overcast clouds,-0.6,73.08,Scoop Guest House
atuona,PF,78.87,few clouds,-9.8,-139.03,Villa Enata
alofi,NU,69.8,broken clouds,-19.06,-169.92,Taloa Heights
hofn,IS,55.4,few clouds,64.25,-15.21,Hótel Höfn
lata,PT,89.01,clear sky,40.16,-8.33,Casa Maquia
la suiza,CR,87.8,broken clouds,9.85,-83.61,Nature Hideaway Bed & Breakfast
castro,BR,80.65,few clouds,-24.79,-50.01,CHACARA BAILLY
atuona,PF,78.87,few clouds,-9.8,-139.03,Villa Enata
codrington,AU,66.34,overcast clouds,-38.27,141.97,Codrington Gardens Bed And Breakfast
hilo,US,80.6,few clouds,19.73,-155.09,Hilo Hawaiian Hotel
yellowknife,CA,51.01,broken clouds,62.46,-114.35,The Explorer Hotel
sao joao da barra,BR,84.2,few clouds,-21.64,-41.05,Pousada Porto De Canoas
albany,US,78.01,scattered clouds,42.6,-73.97,
butaritari,KI,82.89,scattered clouds,3.07,172.79,Isles Sunset Lodge
bonthe,SL,77.32,light rain,7.53,-12.51,Bonthe Holiday Village
lubana,LV,51.93,overcast clouds,56.9,26.72,Naktsmītne Lubānā
hilo,US,80.6,few clouds,19.73,-155.09,Hilo Hawaiian Hotel
albany,US,78.01,scattered clouds,42.6,-73.97,
rikitea,PF,73.18,clear sky,-23.12,-134.97,Pension Maro'i
vaini,TO,68.0,broken clouds,-21.2,-175.2,Keleti Beach Resort
big spring,US,91.0,clear sky,32.25,-101.48,Hampton Inn & Suites Big Spring
rikitea,PF,73.18,clear sky,-23.12,-134.97,Pension Maro'i
bambous virieux,MU,73.0,shower rain,-20.34,57.76,Casa Tia Villa
sfantu gheorghe,RO,68.0,clear sky,45.87,25.78,Hotel Park Sfantu Gheorghe
mamallapuram,IN,80.6,mist,12.63,80.17,Radisson Blu Resort Temple Bay Mamallapuram
u thong,TH,80.19,moderate rain,14.38,99.89,บ้านปิ่นสุข อู่ทอง ห้องพักรายเดือน
petropavlovsk-kamchatskiy,RU,51.8,broken clouds,53.05,158.65,"ООО ""Гостиничный комплекс ""Петропавловск"""
tamworth,GB,63.0,overcast clouds,52.63,-1.7,Drayton Manor Hotel
butaritari,KI,82.89,scattered clouds,3.07,172.79,Isles Sunset Lodge
puerto rico,AR,66.25,overcast clouds,-26.8,-55.02,Hotel Cabañas del Prado
hermanus,ZA,59.63,clear sky,-34.42,19.23,Misty Waves Boutique Hotel
carnarvon,AU,64.4,broken clouds,-24.87,113.63,Hospitality Carnarvon
hervey bay,AU,64.0,moderate rain,-25.3,152.85,Shelly Bay Resort
butaritari,KI,82.89,scattered clouds,3.07,172.79,Isles Sunset Lodge
ribeira grande,PT,71.6,scattered clouds,38.52,-28.7,Quinta da Meia Eira
hermanus,ZA,59.63,clear sky,-34.42,19.23,Misty Waves Boutique Hotel
yellowknife,CA,51.01,broken clouds,62.46,-114.35,The Explorer Hotel
bethel,US,78.01,clear sky,41.37,-73.41,Courtyard by Marriott Danbury
georgetown,MY,80.6,few clouds,5.41,100.34,Cititel Penang
mahebourg,MU,71.6,shower rain,-20.41,57.7,Shandrani Beachcomber Resort & Spa
torbay,CA,66.99,few clouds,47.67,-52.73,Gallows Cove
raudeberg,NO,55.99,moderate rain,61.99,5.14,Nordre Silda.
makakilo city,US,78.8,overcast clouds,21.35,-158.09,Marriott's Ko Olina Beach Club
rikitea,PF,73.18,clear sky,-23.12,-134.97,Pension Maro'i
port alfred,ZA,62.04,clear sky,-33.59,26.89,The Halyards Hotel
albany,US,78.01,scattered clouds,42.6,-73.97,
kruisfontein,ZA,61.0,clear sky,-34.0,24.73,Oyster Bay House Rental
rapid valley,US,51.8,overcast clouds,44.06,-103.15,Fairfield Inn & Suites by Marriott Rapid City
mansa,IN,82.49,clear sky,29.98,75.38,STARiHOTEL Mansa
rikitea,PF,73.18,clear sky,-23.12,-134.97,Pension Maro'i
constitucion,CL,56.64,broken clouds,-35.33,-72.42,Hotel Boutique Las Azucenas
kapaa,US,82.4,scattered clouds,22.08,-159.32,Sheraton Kauai Resort at Coconut Beach
peleduy,RU,50.88,overcast clouds,59.63,112.74,Гостиница «Уют»
vila franca do campo,PT,71.6,scattered clouds,37.72,-25.43,Pestana Bahia Praia
mahebourg,MU,71.6,shower rain,-20.41,57.7,Shandrani Beachcomber Resort & Spa
cayenne,GF,89.6,light rain,4.93,-52.33,Hôtel Le Dronmi
kodiak,US,53.6,clear sky,57.79,-152.41,Best Western Kodiak Inn and Convention Center
atuona,PF,78.87,few clouds,-9.8,-139.03,Villa Enata
palmer,US,82.4,broken clouds,42.16,-72.33,Wedgewood Motel
hilo,US,80.6,few clouds,19.73,-155.09,Hilo Hawaiian Hotel
hermanus,ZA,59.63,clear sky,-34.42,19.23,Misty Waves Boutique Hotel
albany,US,78.01,scattered clouds,42.6,-73.97,
california city,US,96.8,haze,35.13,-117.99,Best Western California City Inn & Suites
peniche,PT,82.99,overcast clouds,39.36,-9.38,Hotel Star inn Peniche
east london,ZA,59.0,few clouds,-33.02,27.91,Tu Casa
salem,IN,75.54,heavy intensity rain,11.65,78.17,Hotel Laila palace
torbay,CA,66.99,few clouds,47.67,-52.73,Gallows Cove
port alfred,ZA,62.04,clear sky,-33.59,26.89,The Halyards Hotel
sitka,US,57.2,light rain,57.05,-135.33,Westmark Sitka
rikitea,PF,73.18,clear sky,-23.12,-134.97,Pension Maro'i
karratha,AU,72.54,clear sky,-20.74,116.85,ibis Styles Karratha
hobart,AU,60.01,overcast clouds,-42.88,147.33,St Ives Hobart Accommodation Tasmania
cidreira,BR,57.69,moderate rain,-30.18,-50.21,Hotel Castelo
cabedelo,BR,84.2,few clouds,-6.98,-34.83,Lua Mansa Pousada
volax,GR,79.0,clear sky,41.32,24.0,Monopati E6
ostrovnoy,RU,52.41,light rain,68.05,39.51,
rikitea,PF,73.18,clear sky,-23.12,-134.97,Pension Maro'i
mbini,GQ,80.6,scattered clouds,1.57,9.61,
harper,LR,76.71,broken clouds,4.38,-7.72,Screensaver
albany,US,78.01,scattered clouds,42.6,-73.97,
guerrero negro,MX,88.11,clear sky,27.98,-114.06,"Casa Laguna, Bed & Breakfast"
kismayo,SO,77.02,clear sky,-0.36,42.55,Agan-Hotel
new norfolk,AU,60.01,overcast clouds,-42.78,147.06,The Shingles Riverside Cottages
grand-lahou,CI,76.26,broken clouds,5.14,-5.02,Hotel Beatitude de Grand Lahou
tessalit,ML,98.19,clear sky,20.2,1.01,
kiama,AU,57.99,clear sky,-34.68,150.87,The Sebel Kiama Harbourside
sisophon,KH,78.3,overcast clouds,13.59,102.97,Pyramid Hotel
manama,BH,93.2,clear sky,26.22,50.58,Al Safir Hotel & Tower
vaini,TO,68.0,broken clouds,-21.2,-175.2,Keleti Beach Resort
cabo san lucas,MX,84.2,scattered clouds,22.89,-109.91,Hotel Tesoro Los Cabos
ponta do sol,PT,75.0,scattered clouds,32.67,-17.1,Hotel do Campo
tagusao,PH,80.67,scattered clouds,9.19,117.81,"Shaman's Breath- Beach, Bed & Breakfast"
san cristobal,VE,89.6,scattered clouds,7.77,-72.22,Pirineos
carnarvon,AU,64.4,broken clouds,-24.87,113.63,Hospitality Carnarvon
norman wells,CA,51.8,overcast clouds,65.28,-126.83,Heritage Hotel
